<?xml version="1.0" standalone="yes"?>
<DataSet1 xmlns="http://www.tempuri.org/DataSet1.xsd">
  <loctest>
    <city>ANNABA</city>
    <country>ALGERIA</country>
    <diff>28:44</diff>
    <green>+01:00:00</green>
    <la_dir>NORTH</la_dir>
    <latitude>36.49</latitude>
    <lo_dir>EAST</lo_dir>
    <longitude>7.49</longitude>
    <sign>+1</sign>
    <sn>1</sn>
  </loctest>
  <loctest>
    <city>AALBORG</city>
    <country>DENMARK</country>
    <diff>20:36</diff>
    <green>+01:00:00</green>
    <la_dir>NORTH</la_dir>
    <latitude>57.6</latitude>
    <lo_dir>EAST</lo_dir>
    <longitude>9.51</longitude>
    <sign>+1</sign>
    <sn>2</sn>
  </loctest>
  <loctest>
    <city>AARHUS</city>
    <country>DENMARK</country>
    <diff>17:32</diff>
    <green>+01:00:00</green>
    <la_dir>NORTH</la_dir>
    <latitude>56.19</latitude>
    <lo_dir>EAST</lo_dir>
    <longitude>10.37</longitude>
    <sign>+1</sign>
    <sn>3</sn>
  </loctest>
  <loctest>
    <city>ABADAN</city>
    <country>IRAN</country>
    <diff>12:1</diff>
    <green>+03:00:00</green>
    <la_dir>NORTH</la_dir>
    <latitude>30.22</latitude>
    <lo_dir>EAST</lo_dir>
    <longitude>48.4</longitude>
    <sign>-1</sign>
    <sn>4</sn>
  </loctest>
  <loctest>
    <city>ALLENTOWN</city>
    <country>PA</country>
    <diff>0:2</diff>
    <green>-05:00:00</green>
    <la_dir>NORTH</la_dir>
    <latitude>40.39</latitude>
    <lo_dir>WEST</lo_dir>
    <longitude>75.6</longitude>
    <sign>-1</sign>
    <sn>5</sn>
  </loctest>
  <loctest>
    <city>ABILENE</city>
    <country>TEXAS</country>
    <diff>36:0</diff>
    <green>-06:00:00</green>
    <la_dir>NORTH</la_dir>
    <latitude>32.25</latitude>
    <lo_dir>WEST</lo_dir>
    <longitude>99.1</longitude>
    <sign>-1</sign>
    <sn>6</sn>
  </loctest>
  <loctest>
    <city>ABIDJAN</city>
    <country>IVORY COAST</country>
    <diff>15:44</diff>
    <green>00:00:00</green>
    <la_dir>NORTH</la_dir>
    <latitude>5.15</latitude>
    <lo_dir>WEST</lo_dir>
    <longitude>3.56</longitude>
    <sign>-1</sign>
    <sn>7</sn>
  </loctest>
  <loctest>
    <city>ALBUQUERQUE</city>
    <country>NM</country>
    <diff>6:24</diff>
    <green>-07:00:00</green>
    <la_dir>NORTH</la_dir>
    <latitude>35.3</latitude>
    <lo_dir>WEST</lo_dir>
    <longitude>106.36</longitude>
    <sign>-1</sign>
    <sn>8</sn>
  </loctest>
  <loctest>
    <city>ABERDEEN</city>
    <country>SD</country>
    <diff>32:2</diff>
    <green>-06:00:00</green>
    <la_dir>NORTH</la_dir>
    <latitude>45.27</latitude>
    <lo_dir>WEST</lo_dir>
    <longitude>98.6</longitude>
    <sign>-1</sign>
    <sn>9</sn>
  </loctest>
  <loctest>
    <city>ABU SIMBEL</city>
    <country>EGYPT</country>
    <diff>4:2</diff>
    <green>+02:00:00</green>
    <la_dir>NORTH</la_dir>
    <latitude>22.22</latitude>
    <lo_dir>EAST</lo_dir>
    <longitude>31.7</longitude>
    <sign>-1</sign>
    <sn>10</sn>
  </loctest>
  <loctest>
    <city>ABUJA</city>
    <country>NIGERIA</country>
    <diff>30:56</diff>
    <green>+01:00:00</green>
    <la_dir>NORTH</la_dir>
    <latitude>9.0</latitude>
    <lo_dir>EAST</lo_dir>
    <longitude>7.16</longitude>
    <sign>+1</sign>
    <sn>11</sn>
  </loctest>
  <loctest>
    <city>ALBANY</city>
    <country>GA</country>
    <diff>36:0</diff>
    <green>-05:00:00</green>
    <la_dir>NORTH</la_dir>
    <latitude>31.32</latitude>
    <lo_dir>WEST</lo_dir>
    <longitude>84.2</longitude>
    <sign>-1</sign>
    <sn>12</sn>
  </loctest>
  <loctest>
    <city>ACAPULCO</city>
    <country>MEXICO</country>
    <diff>36:2</diff>
    <green>-06:00:00</green>
    <la_dir>NORTH</la_dir>
    <latitude>16.45</latitude>
    <lo_dir>WEST</lo_dir>
    <longitude>99.6</longitude>
    <sign>-1</sign>
    <sn>13</sn>
  </loctest>
  <loctest>
    <city>ACCRA</city>
    <country>GHANA</country>
    <diff>0:40</diff>
    <green>00:00:00</green>
    <la_dir>NORTH</la_dir>
    <latitude>5.36</latitude>
    <lo_dir>WEST</lo_dir>
    <longitude>0.10</longitude>
    <sign>-1</sign>
    <sn>14</sn>
  </loctest>
  <loctest>
    <city>LANZAROTE</city>
    <country>SPAIN</country>
    <diff>7:58</diff>
    <green>+01:00:00</green>
    <la_dir>NORTH</la_dir>
    <latitude>28.57</latitude>
    <lo_dir>WEST</lo_dir>
    <longitude>13.6</longitude>
    <sign>+1</sign>
    <sn>15</sn>
  </loctest>
  <loctest>
    <city>WACO</city>
    <country>TEXAS</country>
    <diff>28:1</diff>
    <green>-06:00:00</green>
    <la_dir>NORTH</la_dir>
    <latitude>31.37</latitude>
    <lo_dir>WEST</lo_dir>
    <longitude>97.4</longitude>
    <sign>-1</sign>
    <sn>16</sn>
  </loctest>
  <loctest>
    <city>ARCATA/EUREKA</city>
    <country>CA</country>
    <diff>16:24</diff>
    <green>-08:00:00</green>
    <la_dir>NORTH</la_dir>
    <latitude>40.59</latitude>
    <lo_dir>WEST</lo_dir>
    <longitude>124.06</longitude>
    <sign>-1</sign>
    <sn>17</sn>
  </loctest>
  <loctest>
    <city>ATLANTIC CITY</city>
    <country>NJ</country>
    <diff>3:58</diff>
    <green>-05:00:00</green>
    <la_dir>NORTH</la_dir>
    <latitude>39.27</latitude>
    <lo_dir>WEST</lo_dir>
    <longitude>74.5</longitude>
    <sign>+1</sign>
    <sn>18</sn>
  </loctest>
  <loctest>
    <city>ADANA</city>
    <country>TURKEY</country>
    <diff>39:58</diff>
    <green>+03:00:00</green>
    <la_dir>NORTH</la_dir>
    <latitude>36.59</latitude>
    <lo_dir>EAST</lo_dir>
    <longitude>35.7</longitude>
    <sign>+1</sign>
    <sn>19</sn>
  </loctest>
  <loctest>
    <city>ADDIS ABABA</city>
    <country>ETHIOPIA</country>
    <diff>27:57</diff>
    <green>+03:00:00</green>
    <la_dir>NORTH</la_dir>
    <latitude>8.59</latitude>
    <lo_dir>EAST</lo_dir>
    <longitude>38.8</longitude>
    <sign>+1</sign>
    <sn>20</sn>
  </loctest>
  <loctest>
    <city>AMMAN</city>
    <country>JORDAN</country>
    <diff>20:3</diff>
    <green>+02:00:00</green>
    <la_dir>NORTH</la_dir>
    <latitude>31.58</latitude>
    <lo_dir>EAST</lo_dir>
    <longitude>35.9</longitude>
    <sign>-1</sign>
    <sn>21</sn>
  </loctest>
  <loctest>
    <city>ADAK ISLAND</city>
    <country>ALASKA</country>
    <diff>166:36</diff>
    <green>-09:00:00</green>
    <la_dir>NORTH</la_dir>
    <latitude>51.53</latitude>
    <lo_dir>WEST</lo_dir>
    <longitude>176.39</longitude>
    <sign>-1</sign>
    <sn>22</sn>
  </loctest>
  <loctest>
    <city>ADELAIDE</city>
    <country>AUSTRALIA</country>
    <diff>35:52</diff>
    <green>+09:50:00</green>
    <la_dir>SOUTH</la_dir>
    <latitude>34.57</latitude>
    <lo_dir>EAST</lo_dir>
    <longitude>138.32</longitude>
    <sign>+1</sign>
    <sn>23</sn>
  </loctest>
  <loctest>
    <city>ARDMORE</city>
    <country>OKLAHOMA</country>
    <diff>28:0</diff>
    <green>-06:00:00</green>
    <la_dir>NORTH</la_dir>
    <latitude>34.18</latitude>
    <lo_dir>WEST</lo_dir>
    <longitude>97.1</longitude>
    <sign>-1</sign>
    <sn>24</sn>
  </loctest>
  <loctest>
    <city>KODIAK</city>
    <country>ALASKA</country>
    <diff>69:56</diff>
    <green>-09:00:00</green>
    <la_dir>NORTH</la_dir>
    <latitude>57.45</latitude>
    <lo_dir>WEST</lo_dir>
    <longitude>152.29</longitude>
    <sign>-1</sign>
    <sn>25</sn>
  </loctest>
  <loctest>
    <city>DALLAS</city>
    <country>TEXAS</country>
    <diff>24:0</diff>
    <green>-06:00:00</green>
    <la_dir>NORTH</la_dir>
    <latitude>32.58</latitude>
    <lo_dir>WEST</lo_dir>
    <longitude>96.0</longitude>
    <sign>-1</sign>
    <sn>26</sn>
  </loctest>
  <loctest>
    <city>CAMP SPRINGS</city>
    <country>MD</country>
    <diff>4:0</diff>
    <green>-05:00:00</green>
    <la_dir>NORTH</la_dir>
    <latitude>38.49</latitude>
    <lo_dir>WEST</lo_dir>
    <longitude>76.2</longitude>
    <sign>-1</sign>
    <sn>27</sn>
  </loctest>
  <loctest>
    <city>SAN ANDRES ISL</city>
    <country>
    </country>
    <diff>96:0</diff>
    <green>-07:00:00</green>
    <la_dir>NORTH</la_dir>
    <latitude>12.35</latitude>
    <lo_dir>WEST</lo_dir>
    <longitude>81.2</longitude>
    <sign>+1</sign>
    <sn>28</sn>
  </loctest>
  <loctest>
    <city>BUENOS AIRES</city>
    <country>AR</country>
    <diff>127:58</diff>
    <green>-06:00:00</green>
    <la_dir>SOUTH</la_dir>
    <latitude>34.34</latitude>
    <lo_dir>WEST</lo_dir>
    <longitude>58.5</longitude>
    <sign>+1</sign>
    <sn>29</sn>
  </loctest>
  <loctest>
    <city>ALEXANDRIA</city>
    <country>LA</country>
    <diff>8:1</diff>
    <green>-06:00:00</green>
    <la_dir>NORTH</la_dir>
    <latitude>31.19</latitude>
    <lo_dir>WEST</lo_dir>
    <longitude>92.3</longitude>
    <sign>-1</sign>
    <sn>30</sn>
  </loctest>
  <loctest>
    <city>SAN RAFAEL</city>
    <country>ARGENTINA</country>
    <diff>92:1</diff>
    <green>-03:00:00</green>
    <la_dir>SOUTH</la_dir>
    <latitude>34.35</latitude>
    <lo_dir>WEST</lo_dir>
    <longitude>68.4</longitude>
    <sign>-1</sign>
    <sn>31</sn>
  </loctest>
  <loctest>
    <city>AGADIR</city>
    <country>MOROCCO</country>
    <diff>38:12</diff>
    <green>00:00:00</green>
    <la_dir>NORTH</la_dir>
    <latitude>30.23</latitude>
    <lo_dir>WEST</lo_dir>
    <longitude>9.33</longitude>
    <sign>-1</sign>
    <sn>32</sn>
  </loctest>
  <loctest>
    <city>AGEN</city>
    <country>FRANCE</country>
    <diff>57:36</diff>
    <green>+01:00:00</green>
    <la_dir>NORTH</la_dir>
    <latitude>44.10</latitude>
    <lo_dir>EAST</lo_dir>
    <longitude>0.36</longitude>
    <sign>+1</sign>
    <sn>33</sn>
  </loctest>
  <loctest>
    <city>HELSINGBORG</city>
    <country>SWEDEN</country>
    <diff>12:0</diff>
    <green>+01:00:00</green>
    <la_dir>NORTH</la_dir>
    <latitude>56.18</latitude>
    <lo_dir>EAST</lo_dir>
    <longitude>12.2</longitude>
    <sign>+1</sign>
    <sn>34</sn>
  </loctest>
  <loctest>
    <city>MALAGA</city>
    <country>SPAIN</country>
    <diff>42:0</diff>
    <green>+01:00:00</green>
    <la_dir>NORTH</la_dir>
    <latitude>36.40</latitude>
    <lo_dir>WEST</lo_dir>
    <longitude>4.30</longitude>
    <sign>+1</sign>
    <sn>35</sn>
  </loctest>
  <loctest>
    <city>AUGUSTA</city>
    <country>GEORGIA</country>
    <diff>24:3</diff>
    <green>-05:00:00</green>
    <la_dir>NORTH</la_dir>
    <latitude>33.22</latitude>
    <lo_dir>WEST</lo_dir>
    <longitude>81.8</longitude>
    <sign>-1</sign>
    <sn>36</sn>
  </loctest>
  <loctest>
    <city>OKINAWA</city>
    <country>JAPAN</country>
    <diff>29:24</diff>
    <green>+09:00:00</green>
    <la_dir>NORTH</la_dir>
    <latitude>26.12</latitude>
    <lo_dir>EAST</lo_dir>
    <longitude>127.39</longitude>
    <sign>+1</sign>
    <sn>37</sn>
  </loctest>
  <loctest>
    <city>ABHA</city>
    <country>SAUDIA ARABIA</country>
    <diff>11:57</diff>
    <green>+03:00:00</green>
    <la_dir>NORTH</la_dir>
    <latitude>18.18</latitude>
    <lo_dir>EAST</lo_dir>
    <longitude>42.9</longitude>
    <sign>+1</sign>
    <sn>38</sn>
  </loctest>
  <loctest>
    <city>HERLONG</city>
    <country>CALIFORNIA</country>
    <diff>0:36</diff>
    <green>-08:00:00</green>
    <la_dir>NORTH</la_dir>
    <latitude>40.16</latitude>
    <lo_dir>WEST</lo_dir>
    <longitude>120.09</longitude>
    <sign>-1</sign>
    <sn>39</sn>
  </loctest>
  <loctest>
    <city>ATHENS</city>
    <country>GEORGIA</country>
    <diff>32:0</diff>
    <green>-05:00:00</green>
    <la_dir>NORTH</la_dir>
    <latitude>33.57</latitude>
    <lo_dir>WEST</lo_dir>
    <longitude>83.0</longitude>
    <sign>-1</sign>
    <sn>40</sn>
  </loctest>
  <loctest>
    <city>ALGHERO</city>
    <country>ITALY</country>
    <diff>26:52</diff>
    <green>+01:00:00</green>
    <la_dir>NORTH</la_dir>
    <latitude>40.38</latitude>
    <lo_dir>EAST</lo_dir>
    <longitude>8.17</longitude>
    <sign>+1</sign>
    <sn>41</sn>
  </loctest>
  <loctest>
    <city>AL HOCEIMA</city>
    <country>MOROCCO</country>
    <diff>15:20</diff>
    <green>00:00:00</green>
    <la_dir>NORTH</la_dir>
    <latitude>35.11</latitude>
    <lo_dir>WEST</lo_dir>
    <longitude>3.50</longitude>
    <sign>-1</sign>
    <sn>42</sn>
  </loctest>
  <loctest>
    <city>ALLIANCE</city>
    <country>NEBRASKA</country>
    <diff>8:48</diff>
    <green>-07:00:00</green>
    <la_dir>NORTH</la_dir>
    <latitude>42.3</latitude>
    <lo_dir>WEST</lo_dir>
    <longitude>102.48</longitude>
    <sign>+1</sign>
    <sn>43</sn>
  </loctest>
  <loctest>
    <city>ANDERSON</city>
    <country>INDIANA</country>
    <diff>40:2</diff>
    <green>-05:00:00</green>
    <la_dir>NORTH</la_dir>
    <latitude>40.6</latitude>
    <lo_dir>WEST</lo_dir>
    <longitude>85.7</longitude>
    <sign>-1</sign>
    <sn>44</sn>
  </loctest>
  <loctest>
    <city>AIKEN</city>
    <country>SC</country>
    <diff>24:0</diff>
    <green>-05:00:00</green>
    <la_dir>NORTH</la_dir>
    <latitude>33.39</latitude>
    <lo_dir>WEST</lo_dir>
    <longitude>81.1</longitude>
    <sign>-1</sign>
    <sn>45</sn>
  </loctest>
  <loctest>
    <city>LAKE OF</city>
    <country>
    </country>
    <diff>8:1</diff>
    <green>-06:00:00</green>
    <la_dir>NORTH</la_dir>
    <latitude>38.6</latitude>
    <lo_dir>WEST</lo_dir>
    <longitude>92.3</longitude>
    <sign>-1</sign>
    <sn>46</sn>
  </loctest>
  <loctest>
    <city>AJACCIO</city>
    <country>FRANCE</country>
    <diff>24:48</diff>
    <green>+01:00:00</green>
    <la_dir>NORTH</la_dir>
    <latitude>41.55</latitude>
    <lo_dir>EAST</lo_dir>
    <longitude>8.48</longitude>
    <sign>+1</sign>
    <sn>47</sn>
  </loctest>
  <loctest>
    <city>JOUF</city>
    <country>SAUDIA ARABIA</country>
    <diff>19:59</diff>
    <green>+03:00:00</green>
    <la_dir>NORTH</la_dir>
    <latitude>29.48</latitude>
    <lo_dir>EAST</lo_dir>
    <longitude>40.4</longitude>
    <sign>+1</sign>
    <sn>48</sn>
  </loctest>
  <loctest>
    <city>AGADES</city>
    <country>NIGER</country>
    <diff>28:0</diff>
    <green>+01:00:00</green>
    <la_dir>NORTH</la_dir>
    <latitude>16.58</latitude>
    <lo_dir>EAST</lo_dir>
    <longitude>7.60</longitude>
    <sign>+1</sign>
    <sn>49</sn>
  </loctest>
  <loctest>
    <city>KUFRAH</city>
    <country>LIBYA</country>
    <diff>28:0</diff>
    <green>+02:00:00</green>
    <la_dir>NORTH</la_dir>
    <latitude>24.12</latitude>
    <lo_dir>EAST</lo_dir>
    <longitude>23.0</longitude>
    <sign>+1</sign>
    <sn>50</sn>
  </loctest>
  <loctest>
    <city>AUCKLAND</city>
    <country>NEW ZEALAND</country>
    <diff>20:48</diff>
    <green>+12:00:00</green>
    <la_dir>SOUTH</la_dir>
    <latitude>37.1</latitude>
    <lo_dir>EAST</lo_dir>
    <longitude>174.48</longitude>
    <sign>+1</sign>
    <sn>51</sn>
  </loctest>
  <loctest>
    <city>KING SALMON</city>
    <country>ALASKA</country>
    <diff>86:36</diff>
    <green>-09:00:00</green>
    <la_dir>NORTH</la_dir>
    <latitude>58.41</latitude>
    <lo_dir>WEST</lo_dir>
    <longitude>156.39</longitude>
    <sign>-1</sign>
    <sn>52</sn>
  </loctest>
  <loctest>
    <city>AKURE</city>
    <country>NIGERIA</country>
    <diff>38:48</diff>
    <green>+01:00:00</green>
    <la_dir>NORTH</la_dir>
    <latitude>7.16</latitude>
    <lo_dir>EAST</lo_dir>
    <longitude>5.18</longitude>
    <sign>+1</sign>
    <sn>53</sn>
  </loctest>
  <loctest>
    <city>ALICANTE</city>
    <country>SPAIN</country>
    <diff>57:44</diff>
    <green>+01:00:00</green>
    <la_dir>NORTH</la_dir>
    <latitude>38.17</latitude>
    <lo_dir>WEST</lo_dir>
    <longitude>0.34</longitude>
    <sign>+1</sign>
    <sn>54</sn>
  </loctest>
  <loctest>
    <city>ALGIERS</city>
    <country>ALGERIA</country>
    <diff>47:8</diff>
    <green>+01:00:00</green>
    <la_dir>NORTH</la_dir>
    <latitude>36.42</latitude>
    <lo_dir>EAST</lo_dir>
    <longitude>3.13</longitude>
    <sign>+1</sign>
    <sn>55</sn>
  </loctest>
  <loctest>
    <city>WATERLOO</city>
    <country>IOWA</country>
    <diff>8:1</diff>
    <green>-06:00:00</green>
    <la_dir>NORTH</la_dir>
    <latitude>42.33</latitude>
    <lo_dir>WEST</lo_dir>
    <longitude>92.4</longitude>
    <sign>-1</sign>
    <sn>56</sn>
  </loctest>
  <loctest>
    <city>ALEPPO</city>
    <country>SYRIA</country>
    <diff>28:1</diff>
    <green>+02:00:00</green>
    <la_dir>NORTH</la_dir>
    <latitude>36.11</latitude>
    <lo_dir>EAST</lo_dir>
    <longitude>37.4</longitude>
    <sign>-1</sign>
    <sn>57</sn>
  </loctest>
  <loctest>
    <city>ALAMOSA</city>
    <country>COLORADO</country>
    <diff>3:28</diff>
    <green>-07:00:00</green>
    <la_dir>NORTH</la_dir>
    <latitude>37.26</latitude>
    <lo_dir>WEST</lo_dir>
    <longitude>105.52</longitude>
    <sign>-1</sign>
    <sn>58</sn>
  </loctest>
  <loctest>
    <city>WALLA WALLA</city>
    <country>WA</country>
    <diff>6:52</diff>
    <green>-08:00:00</green>
    <la_dir>NORTH</la_dir>
    <latitude>46.6</latitude>
    <lo_dir>WEST</lo_dir>
    <longitude>118.17</longitude>
    <sign>+1</sign>
    <sn>59</sn>
  </loctest>
  <loctest>
    <city>AMARILLO</city>
    <country>TEXAS</country>
    <diff>46:52</diff>
    <green>-06:00:00</green>
    <la_dir>NORTH</la_dir>
    <latitude>35.14</latitude>
    <lo_dir>WEST</lo_dir>
    <longitude>101.43</longitude>
    <sign>-1</sign>
    <sn>60</sn>
  </loctest>
  <loctest>
    <city>AHMEDABAD</city>
    <country>INDIA</country>
    <diff>41:58</diff>
    <green>+05:30:00</green>
    <la_dir>NORTH</la_dir>
    <latitude>23.4</latitude>
    <lo_dir>EAST</lo_dir>
    <longitude>72.7</longitude>
    <sign>+1</sign>
    <sn>61</sn>
  </loctest>
  <loctest>
    <city>AMBOIN</city>
    <country>PAPUA GUINEA</country>
    <diff>26:0</diff>
    <green>+10:00:00</green>
    <la_dir>SOUTH</la_dir>
    <latitude>4.36</latitude>
    <lo_dir>EAST</lo_dir>
    <longitude>143.30</longitude>
    <sign>+1</sign>
    <sn>62</sn>
  </loctest>
  <loctest>
    <city>ALMA</city>
    <country>MICHIGAN</country>
    <diff>36:0</diff>
    <green>-05:00:00</green>
    <la_dir>NORTH</la_dir>
    <latitude>43.19</latitude>
    <lo_dir>WEST</lo_dir>
    <longitude>84.1</longitude>
    <sign>-1</sign>
    <sn>63</sn>
  </loctest>
  <loctest>
    <city>AMSTERDAM</city>
    <country>NETHERLAND</country>
    <diff>40:56</diff>
    <green>+01:00:00</green>
    <la_dir>NORTH</la_dir>
    <latitude>52.19</latitude>
    <lo_dir>EAST</lo_dir>
    <longitude>4.46</longitude>
    <sign>+1</sign>
    <sn>64</sn>
  </loctest>
  <loctest>
    <city>ANNISTON</city>
    <country>ALABAMA</country>
    <diff>20:0</diff>
    <green>-06:00:00</green>
    <la_dir>NORTH</la_dir>
    <latitude>33.35</latitude>
    <lo_dir>WEST</lo_dir>
    <longitude>85.1</longitude>
    <sign>+1</sign>
    <sn>65</sn>
  </loctest>
  <loctest>
    <city>ANCHORAGE</city>
    <country>ALASKA</country>
    <diff>59:56</diff>
    <green>-09:00:00</green>
    <la_dir>NORTH</la_dir>
    <latitude>61.10</latitude>
    <lo_dir>WEST</lo_dir>
    <longitude>149.59</longitude>
    <sign>-1</sign>
    <sn>66</sn>
  </loctest>
  <loctest>
    <city>ANGERS</city>
    <country>FRANCE</country>
    <diff>57:44</diff>
    <green>+01:00:00</green>
    <la_dir>NORTH</la_dir>
    <latitude>47.30</latitude>
    <lo_dir>WEST</lo_dir>
    <longitude>0.34</longitude>
    <sign>+1</sign>
    <sn>67</sn>
  </loctest>
  <loctest>
    <city>ANTOFAGASTA</city>
    <country>CHILE</country>
    <diff>40:2</diff>
    <green>-04:00:00</green>
    <la_dir>SOUTH</la_dir>
    <latitude>23.26</latitude>
    <lo_dir>WEST</lo_dir>
    <longitude>70.7</longitude>
    <sign>-1</sign>
    <sn>68</sn>
  </loctest>
  <loctest>
    <city>ANNETTE ISLAND</city>
    <country>AK</country>
    <diff>13:44</diff>
    <green>-09:00:00</green>
    <la_dir>NORTH</la_dir>
    <latitude>55.2</latitude>
    <lo_dir>WEST</lo_dir>
    <longitude>131.34</longitude>
    <sign>+1</sign>
    <sn>69</sn>
  </loctest>
  <loctest>
    <city>ANTIGUA</city>
    <country>AG</country>
    <diff>4:2</diff>
    <green>-04:00:00</green>
    <la_dir>NORTH</la_dir>
    <latitude>17.8</latitude>
    <lo_dir>WEST</lo_dir>
    <longitude>61.7</longitude>
    <sign>-1</sign>
    <sn>70</sn>
  </loctest>
  <loctest>
    <city>LIMA</city>
    <country>OHIO</country>
    <diff>36:0</diff>
    <green>-05:00:00</green>
    <la_dir>NORTH</la_dir>
    <latitude>40.43</latitude>
    <lo_dir>WEST</lo_dir>
    <longitude>84.2</longitude>
    <sign>-1</sign>
    <sn>71</sn>
  </loctest>
  <loctest>
    <city>ANCONA</city>
    <country>ITALY</country>
    <diff>8:0</diff>
    <green>+01:00:00</green>
    <la_dir>NORTH</la_dir>
    <latitude>43.37</latitude>
    <lo_dir>EAST</lo_dir>
    <longitude>13.2</longitude>
    <sign>+1</sign>
    <sn>72</sn>
  </loctest>
  <loctest>
    <city>PASO LIBRES</city>
    <country>ARGENTINA</country>
    <diff>48:3</diff>
    <green>-03:00:00</green>
    <la_dir>SOUTH</la_dir>
    <latitude>29.41</latitude>
    <lo_dir>WEST</lo_dir>
    <longitude>57.9</longitude>
    <sign>-1</sign>
    <sn>73</sn>
  </loctest>
  <loctest>
    <city>ALTOONA</city>
    <country>PA</country>
    <diff>12:3</diff>
    <green>-05:00:00</green>
    <la_dir>NORTH</la_dir>
    <latitude>40.18</latitude>
    <lo_dir>WEST</lo_dir>
    <longitude>78.9</longitude>
    <sign>-1</sign>
    <sn>74</sn>
  </loctest>
  <loctest>
    <city>DENVER</city>
    <country>COLORADO</country>
    <diff>0:36</diff>
    <green>-07:00:00</green>
    <la_dir>NORTH</la_dir>
    <latitude>39.34</latitude>
    <lo_dir>WEST</lo_dir>
    <longitude>104.51</longitude>
    <sign>+1</sign>
    <sn>75</sn>
  </loctest>
  <loctest>
    <city>NAPA</city>
    <country>CALIFORNIA</country>
    <diff>9:8</diff>
    <green>-08:00:00</green>
    <la_dir>NORTH</la_dir>
    <latitude>38.13</latitude>
    <lo_dir>WEST</lo_dir>
    <longitude>122.17</longitude>
    <sign>-1</sign>
    <sn>76</sn>
  </loctest>
  <loctest>
    <city>NAPLES</city>
    <country>FLORIDA</country>
    <diff>24:2</diff>
    <green>-05:00:00</green>
    <la_dir>NORTH</la_dir>
    <latitude>26.9</latitude>
    <lo_dir>WEST</lo_dir>
    <longitude>81.7</longitude>
    <sign>-1</sign>
    <sn>77</sn>
  </loctest>
  <loctest>
    <city>NAMPULA</city>
    <country>MOZAMBIQUE</country>
    <diff>36:2</diff>
    <green>+02:00:00</green>
    <la_dir>SOUTH</la_dir>
    <latitude>15.6</latitude>
    <lo_dir>EAST</lo_dir>
    <longitude>39.7</longitude>
    <sign>-1</sign>
    <sn>78</sn>
  </loctest>
  <loctest>
    <city>ALPENA</city>
    <country>MICHIGAN</country>
    <diff>32:1</diff>
    <green>-05:00:00</green>
    <la_dir>NORTH</la_dir>
    <latitude>45.5</latitude>
    <lo_dir>WEST</lo_dir>
    <longitude>83.3</longitude>
    <sign>-1</sign>
    <sn>79</sn>
  </loctest>
  <loctest>
    <city>APPLE VALLEY</city>
    <country>CA</country>
    <diff>11:8</diff>
    <green>-08:00:00</green>
    <la_dir>NORTH</la_dir>
    <latitude>34.32</latitude>
    <lo_dir>WEST</lo_dir>
    <longitude>117.13</longitude>
    <sign>+1</sign>
    <sn>80</sn>
  </loctest>
  <loctest>
    <city>QAISUMAH</city>
    <country>SAUDIA ARABIA</country>
    <diff>4:3</diff>
    <green>+03:00:00</green>
    <la_dir>NORTH</la_dir>
    <latitude>28.20</latitude>
    <lo_dir>EAST</lo_dir>
    <longitude>46.8</longitude>
    <sign>-1</sign>
    <sn>81</sn>
  </loctest>
  <loctest>
    <city>AQABA</city>
    <country>JORDAN</country>
    <diff>20:0</diff>
    <green>+02:00:00</green>
    <la_dir>NORTH</la_dir>
    <latitude>29.37</latitude>
    <lo_dir>EAST</lo_dir>
    <longitude>35.1</longitude>
    <sign>-1</sign>
    <sn>82</sn>
  </loctest>
  <loctest>
    <city>AREQUIPA</city>
    <country>PERU</country>
    <diff>15:59</diff>
    <green>-05:00:00</green>
    <la_dir>SOUTH</la_dir>
    <latitude>16.20</latitude>
    <lo_dir>WEST</lo_dir>
    <longitude>71.3</longitude>
    <sign>+1</sign>
    <sn>83</sn>
  </loctest>
  <loctest>
    <city>NEW IBERIA,</city>
    <country>LA,</country>
    <diff>4:1</diff>
    <green>-06:00:00</green>
    <la_dir>NORTH</la_dir>
    <latitude>30.2</latitude>
    <lo_dir>WEST</lo_dir>
    <longitude>91.3</longitude>
    <sign>-1</sign>
    <sn>84</sn>
  </loctest>
  <loctest>
    <city>WALNUT RIDGE</city>
    <country>AR</country>
    <diff>0:2</diff>
    <green>-06:00:00</green>
    <la_dir>NORTH</la_dir>
    <latitude>36.8</latitude>
    <lo_dir>WEST</lo_dir>
    <longitude>90.6</longitude>
    <sign>-1</sign>
    <sn>85</sn>
  </loctest>
  <loctest>
    <city>ARICA</city>
    <country>CHILE</country>
    <diff>40:0</diff>
    <green>-04:00:00</green>
    <la_dir>SOUTH</la_dir>
    <latitude>18.20</latitude>
    <lo_dir>WEST</lo_dir>
    <longitude>70.0</longitude>
    <sign>-1</sign>
    <sn>86</sn>
  </loctest>
  <loctest>
    <city>STOCKHOLM</city>
    <country>SWEDEN</country>
    <diff>8:2</diff>
    <green>+01:00:00</green>
    <la_dir>NORTH</la_dir>
    <latitude>59.40</latitude>
    <lo_dir>EAST</lo_dir>
    <longitude>17.6</longitude>
    <sign>-1</sign>
    <sn>87</sn>
  </loctest>
  <loctest>
    <city>WATERTOWN</city>
    <country>NEW YORK</country>
    <diff>4:0</diff>
    <green>-05:00:00</green>
    <la_dir>NORTH</la_dir>
    <latitude>43.59</latitude>
    <lo_dir>WEST</lo_dir>
    <longitude>76.1</longitude>
    <sign>-1</sign>
    <sn>88</sn>
  </loctest>
  <loctest>
    <city>ARACATUBA</city>
    <country>BRAZIL</country>
    <diff>20:2</diff>
    <green>-03:00:00</green>
    <la_dir>SOUTH</la_dir>
    <latitude>21.9</latitude>
    <lo_dir>WEST</lo_dir>
    <longitude>50.6</longitude>
    <sign>-1</sign>
    <sn>89</sn>
  </loctest>
  <loctest>
    <city>MINOCQUA</city>
    <country>WISCONSIN</country>
    <diff>3:59</diff>
    <green>-06:00:00</green>
    <la_dir>NORTH</la_dir>
    <latitude>45.55</latitude>
    <lo_dir>WEST</lo_dir>
    <longitude>89.4</longitude>
    <sign>+1</sign>
    <sn>90</sn>
  </loctest>
  <loctest>
    <city>ARAD</city>
    <country>ROMANIA</country>
    <diff>35:58</diff>
    <green>+02:00:00</green>
    <la_dir>NORTH</la_dir>
    <latitude>46.11</latitude>
    <lo_dir>EAST</lo_dir>
    <longitude>21.6</longitude>
    <sign>+1</sign>
    <sn>91</sn>
  </loctest>
  <loctest>
    <city>ASPEN</city>
    <country>COLORADO</country>
    <diff>7:28</diff>
    <green>-07:00:00</green>
    <la_dir>NORTH</la_dir>
    <latitude>39.13</latitude>
    <lo_dir>WEST</lo_dir>
    <longitude>106.52</longitude>
    <sign>-1</sign>
    <sn>92</sn>
  </loctest>
  <loctest>
    <city>NASHUA,</city>
    <country>NH, USA</country>
    <diff>16:0</diff>
    <green>-05:00:00</green>
    <la_dir>NORTH</la_dir>
    <latitude>42.47</latitude>
    <lo_dir>WEST</lo_dir>
    <longitude>71.1</longitude>
    <sign>+1</sign>
    <sn>93</sn>
  </loctest>
  <loctest>
    <city>GEORGETOWN</city>
    <country>SH</country>
    <diff>56:1</diff>
    <green>00:00:00</green>
    <la_dir>SOUTH</la_dir>
    <latitude>7.58</latitude>
    <lo_dir>WEST</lo_dir>
    <longitude>14.4</longitude>
    <sign>-1</sign>
    <sn>94</sn>
  </loctest>
  <loctest>
    <city>YAMOUSSOUKRO,</city>
    <country>COTE D</country>
    <diff>21:28</diff>
    <green>00:00:00</green>
    <la_dir>NORTH</la_dir>
    <latitude>6.54</latitude>
    <lo_dir>WEST</lo_dir>
    <longitude>5.22</longitude>
    <sign>-1</sign>
    <sn>95</sn>
  </loctest>
  <loctest>
    <city>MARSHALL</city>
    <country>TEXAS</country>
    <diff>16:3</diff>
    <green>-06:00:00</green>
    <la_dir>NORTH</la_dir>
    <latitude>32.31</latitude>
    <lo_dir>WEST</lo_dir>
    <longitude>94.8</longitude>
    <sign>-1</sign>
    <sn>96</sn>
  </loctest>
  <loctest>
    <city>ASMARA</city>
    <country>ETHIOPIA</country>
    <diff>27:58</diff>
    <green>+03:00:00</green>
    <la_dir>NORTH</la_dir>
    <latitude>15.17</latitude>
    <lo_dir>EAST</lo_dir>
    <longitude>38.5</longitude>
    <sign>+1</sign>
    <sn>97</sn>
  </loctest>
  <loctest>
    <city>TALLADEGA</city>
    <country>ALABAMA</country>
    <diff>15:59</diff>
    <green>-06:00:00</green>
    <la_dir>NORTH</la_dir>
    <latitude>33.34</latitude>
    <lo_dir>WEST</lo_dir>
    <longitude>86.3</longitude>
    <sign>+1</sign>
    <sn>98</sn>
  </loctest>
  <loctest>
    <city>ALICE SPRINGS</city>
    <country>AUSTR</country>
    <diff>54:28</diff>
    <green>+09:50:00</green>
    <la_dir>SOUTH</la_dir>
    <latitude>23.48</latitude>
    <lo_dir>EAST</lo_dir>
    <longitude>133.53</longitude>
    <sign>+1</sign>
    <sn>99</sn>
  </loctest>
  <loctest>
    <city>KAYSERI</city>
    <country>TURKEY</country>
    <diff>40:0</diff>
    <green>+03:00:00</green>
    <la_dir>NORTH</la_dir>
    <latitude>38.42</latitude>
    <lo_dir>EAST</lo_dir>
    <longitude>35.1</longitude>
    <sign>+1</sign>
    <sn>100</sn>
  </loctest>
  <loctest>
    <city>ASTORIA/SEASIDE</city>
    <country>OR</country>
    <diff>15:32</diff>
    <green>-08:00:00</green>
    <la_dir>NORTH</la_dir>
    <latitude>46.10</latitude>
    <lo_dir>WEST</lo_dir>
    <longitude>123.53</longitude>
    <sign>-1</sign>
    <sn>101</sn>
  </loctest>
  <loctest>
    <city>ASUNCION</city>
    <country>PARAGUAY</country>
    <diff>12:0</diff>
    <green>-04:00:00</green>
    <la_dir>SOUTH</la_dir>
    <latitude>25.14</latitude>
    <lo_dir>WEST</lo_dir>
    <longitude>57.1</longitude>
    <sign>+1</sign>
    <sn>102</sn>
  </loctest>
  <loctest>
    <city>ASWAN</city>
    <country>EGYPT</country>
    <diff>8:3</diff>
    <green>+02:00:00</green>
    <la_dir>NORTH</la_dir>
    <latitude>23.58</latitude>
    <lo_dir>EAST</lo_dir>
    <longitude>32.9</longitude>
    <sign>-1</sign>
    <sn>103</sn>
  </loctest>
  <loctest>
    <city>ASHLAND</city>
    <country>WISCONSIN</country>
    <diff>0:2</diff>
    <green>-06:00:00</green>
    <la_dir>NORTH</la_dir>
    <latitude>46.33</latitude>
    <lo_dir>WEST</lo_dir>
    <longitude>90.5</longitude>
    <sign>-1</sign>
    <sn>104</sn>
  </loctest>
  <loctest>
    <city>ATLANTA</city>
    <country>GEORGIA</country>
    <diff>36:2</diff>
    <green>-05:00:00</green>
    <la_dir>NORTH</la_dir>
    <latitude>33.38</latitude>
    <lo_dir>WEST</lo_dir>
    <longitude>84.6</longitude>
    <sign>-1</sign>
    <sn>105</sn>
  </loctest>
  <loctest>
    <city>ALTAMIRA</city>
    <country>BRAZIL</country>
    <diff>28:1</diff>
    <green>-03:00:00</green>
    <la_dir>SOUTH</la_dir>
    <latitude>3.12</latitude>
    <lo_dir>WEST</lo_dir>
    <longitude>52.3</longitude>
    <sign>-1</sign>
    <sn>106</sn>
  </loctest>
  <loctest>
    <city>AMRITSAR</city>
    <country>INDIA</country>
    <diff>53:57</diff>
    <green>+05:50:00</green>
    <la_dir>NORTH</la_dir>
    <latitude>31.42</latitude>
    <lo_dir>EAST</lo_dir>
    <longitude>74.8</longitude>
    <sign>+1</sign>
    <sn>107</sn>
  </loctest>
  <loctest>
    <city>ATAR</city>
    <country>MAURITANIA</country>
    <diff>52:1</diff>
    <green>00:00:00</green>
    <la_dir>NORTH</la_dir>
    <latitude>20.30</latitude>
    <lo_dir>WEST</lo_dir>
    <longitude>13.3</longitude>
    <sign>-1</sign>
    <sn>108</sn>
  </loctest>
  <loctest>
    <city>ARTESIA</city>
    <country>NEW MEXICO</country>
    <diff>2:8</diff>
    <green>-07:00:00</green>
    <la_dir>NORTH</la_dir>
    <latitude>32.51</latitude>
    <lo_dir>WEST</lo_dir>
    <longitude>104.28</longitude>
    <sign>+1</sign>
    <sn>109</sn>
  </loctest>
  <loctest>
    <city>APPLETON</city>
    <country>WISCONSIN</country>
    <diff>8:0</diff>
    <green>-06:00:00</green>
    <la_dir>NORTH</la_dir>
    <latitude>44.15</latitude>
    <lo_dir>WEST</lo_dir>
    <longitude>88.1</longitude>
    <sign>+1</sign>
    <sn>110</sn>
  </loctest>
  <loctest>
    <city>ARUBA</city>
    <country>ARUBA</country>
    <diff>40:0</diff>
    <green>-04:00:00</green>
    <la_dir>NORTH</la_dir>
    <latitude>12.30</latitude>
    <lo_dir>WEST</lo_dir>
    <longitude>70.1</longitude>
    <sign>-1</sign>
    <sn>111</sn>
  </loctest>
  <loctest>
    <city>ABU DHABI</city>
    <country>AE</country>
    <diff>23:57</diff>
    <green>+04:00:00</green>
    <la_dir>NORTH</la_dir>
    <latitude>24.26</latitude>
    <lo_dir>EAST</lo_dir>
    <longitude>54.9</longitude>
    <sign>+1</sign>
    <sn>112</sn>
  </loctest>
  <loctest>
    <city>AUSTIN</city>
    <country>TEXAS</country>
    <diff>28:0</diff>
    <green>-06:00:00</green>
    <la_dir>NORTH</la_dir>
    <latitude>30.18</latitude>
    <lo_dir>WEST</lo_dir>
    <longitude>97.2</longitude>
    <sign>-1</sign>
    <sn>113</sn>
  </loctest>
  <loctest>
    <city>WAUSAU</city>
    <country>WISCONSIN</country>
    <diff>3:58</diff>
    <green>-06:00:00</green>
    <la_dir>NORTH</la_dir>
    <latitude>44.55</latitude>
    <lo_dir>WEST</lo_dir>
    <longitude>89.7</longitude>
    <sign>+1</sign>
    <sn>114</sn>
  </loctest>
  <loctest>
    <city>AVIANO</city>
    <country>ITALY</country>
    <diff>11:58</diff>
    <green>+01:00:00</green>
    <la_dir>NORTH</la_dir>
    <latitude>46.2</latitude>
    <lo_dir>EAST</lo_dir>
    <longitude>12.6</longitude>
    <sign>+1</sign>
    <sn>115</sn>
  </loctest>
  <loctest>
    <city>ASHEVILLE</city>
    <country>NC</country>
    <diff>28:0</diff>
    <green>-05:00:00</green>
    <la_dir>NORTH</la_dir>
    <latitude>35.26</latitude>
    <lo_dir>WEST</lo_dir>
    <longitude>82.2</longitude>
    <sign>-1</sign>
    <sn>116</sn>
  </loctest>
  <loctest>
    <city>SCRANTON</city>
    <country>PA</country>
    <diff>0:1</diff>
    <green>-05:00:00</green>
    <la_dir>NORTH</la_dir>
    <latitude>41.20</latitude>
    <lo_dir>WEST</lo_dir>
    <longitude>75.4</longitude>
    <sign>-1</sign>
    <sn>117</sn>
  </loctest>
  <loctest>
    <city>AVALON</city>
    <country>NSW AUSTRAL</country>
    <diff>22:8</diff>
    <green>+10:00:00</green>
    <la_dir>SOUTH</la_dir>
    <latitude>38.2</latitude>
    <lo_dir>EAST</lo_dir>
    <longitude>144.28</longitude>
    <sign>+1</sign>
    <sn>118</sn>
  </loctest>
  <loctest>
    <city>WAKE ISLAND</city>
    <country>USTT</country>
    <diff>6:32</diff>
    <green>+11:00:00</green>
    <la_dir>NORTH</la_dir>
    <latitude>19.17</latitude>
    <lo_dir>EAST</lo_dir>
    <longitude>166.38</longitude>
    <sign>-1</sign>
    <sn>119</sn>
  </loctest>
  <loctest>
    <city>AHWAZ</city>
    <country>IRAN</country>
    <diff>12:2</diff>
    <green>+03:00:00</green>
    <la_dir>NORTH</la_dir>
    <latitude>31.20</latitude>
    <lo_dir>EAST</lo_dir>
    <longitude>48.6</longitude>
    <sign>-1</sign>
    <sn>120</sn>
  </loctest>
  <loctest>
    <city>ALEXANDROUPOLIS</city>
    <country>GRE</country>
    <diff>19:58</diff>
    <green>+02:00:00</green>
    <la_dir>NORTH</la_dir>
    <latitude>40.51</latitude>
    <lo_dir>EAST</lo_dir>
    <longitude>25.7</longitude>
    <sign>+1</sign>
    <sn>121</sn>
  </loctest>
  <loctest>
    <city>ALTUS</city>
    <country>OKLAHOMA</country>
    <diff>37:20</diff>
    <green>-06:00:00</green>
    <la_dir>NORTH</la_dir>
    <latitude>34.42</latitude>
    <lo_dir>WEST</lo_dir>
    <longitude>99.20</longitude>
    <sign>-1</sign>
    <sn>122</sn>
  </loctest>
  <loctest>
    <city>AKITA</city>
    <country>JAPAN</country>
    <diff>20:16</diff>
    <green>+09:00:00</green>
    <la_dir>NORTH</la_dir>
    <latitude>39.42</latitude>
    <lo_dir>EAST</lo_dir>
    <longitude>140.04</longitude>
    <sign>-1</sign>
    <sn>123</sn>
  </loctest>
  <loctest>
    <city>WAPAKONETA</city>
    <country>OHIO</country>
    <diff>37:12</diff>
    <green>-05:00:00</green>
    <la_dir>NORTH</la_dir>
    <latitude>40.30</latitude>
    <lo_dir>WEST</lo_dir>
    <longitude>84.18</longitude>
    <sign>-1</sign>
    <sn>124</sn>
  </loctest>
  <loctest>
    <city>ANTALYA</city>
    <country>TURKEY</country>
    <diff>56:52</diff>
    <green>+03:00:00</green>
    <la_dir>NORTH</la_dir>
    <latitude>36.54</latitude>
    <lo_dir>EAST</lo_dir>
    <longitude>30.47</longitude>
    <sign>+1</sign>
    <sn>125</sn>
  </loctest>
  <loctest>
    <city>YAZD</city>
    <country>IRAN</country>
    <diff>37:8</diff>
    <green>+03:00:00</green>
    <la_dir>NORTH</la_dir>
    <latitude>31.54</latitude>
    <lo_dir>EAST</lo_dir>
    <longitude>54.17</longitude>
    <sign>-1</sign>
    <sn>126</sn>
  </loctest>
  <loctest>
    <city>KALAMAZOO</city>
    <country>MICHIGAN</country>
    <diff>42:12</diff>
    <green>-05:00:00</green>
    <la_dir>NORTH</la_dir>
    <latitude>42.14</latitude>
    <lo_dir>WEST</lo_dir>
    <longitude>85.33</longitude>
    <sign>-1</sign>
    <sn>127</sn>
  </loctest>
  <loctest>
    <city>MARYSVILLE</city>
    <country>CA</country>
    <diff>5:44</diff>
    <green>-08:00:00</green>
    <la_dir>NORTH</la_dir>
    <latitude>39.8</latitude>
    <lo_dir>WEST</lo_dir>
    <longitude>121.26</longitude>
    <sign>-1</sign>
    <sn>128</sn>
  </loctest>
  <loctest>
    <city>SHREVEPORT</city>
    <country>LA</country>
    <diff>14:40</diff>
    <green>-06:00:00</green>
    <la_dir>NORTH</la_dir>
    <latitude>32.30</latitude>
    <lo_dir>WEST</lo_dir>
    <longitude>93.40</longitude>
    <sign>-1</sign>
    <sn>129</sn>
  </loctest>
  <loctest>
    <city>WESTFIELD</city>
    <country>MA</country>
    <diff>9:8</diff>
    <green>-05:00:00</green>
    <la_dir>NORTH</la_dir>
    <latitude>42.10</latitude>
    <lo_dir>WEST</lo_dir>
    <longitude>72.43</longitude>
    <sign>+1</sign>
    <sn>130</sn>
  </loctest>
  <loctest>
    <city>MANAMAH</city>
    <country>BAHRAIN</country>
    <diff>22:32</diff>
    <green>+03:00:00</green>
    <la_dir>NORTH</la_dir>
    <latitude>26.16</latitude>
    <lo_dir>EAST</lo_dir>
    <longitude>50.38</longitude>
    <sign>-1</sign>
    <sn>131</sn>
  </loctest>
  <loctest>
    <city>BAKU</city>
    <country>USSR</country>
    <diff>19:56</diff>
    <green>+03:00:00</green>
    <la_dir>NORTH</la_dir>
    <latitude>40.30</latitude>
    <lo_dir>EAST</lo_dir>
    <longitude>49.59</longitude>
    <sign>-1</sign>
    <sn>132</sn>
  </loctest>
  <loctest>
    <city>BATTLE MOUNTAIN</city>
    <country>NV,U</country>
    <diff>12:32</diff>
    <green>-08:00:00</green>
    <la_dir>NORTH</la_dir>
    <latitude>0.36</latitude>
    <lo_dir>WEST</lo_dir>
    <longitude>116.52</longitude>
    <sign>+1</sign>
    <sn>133</sn>
  </loctest>
  <loctest>
    <city>BARRANQUILLA</city>
    <country>CO</country>
    <diff>120:52</diff>
    <green>-07:00:00</green>
    <la_dir>NORTH</la_dir>
    <latitude>10.54</latitude>
    <lo_dir>WEST</lo_dir>
    <longitude>74.47</longitude>
    <sign>+1</sign>
    <sn>134</sn>
  </loctest>
  <loctest>
    <city>BALMACEDA</city>
    <country>CHILE</country>
    <diff>46:48</diff>
    <green>-04:00:00</green>
    <la_dir>SOUTH</la_dir>
    <latitude>45.55</latitude>
    <lo_dir>WEST</lo_dir>
    <longitude>71.42</longitude>
    <sign>-1</sign>
    <sn>135</sn>
  </loctest>
  <loctest>
    <city>BUCHAREST</city>
    <country>ROMANIA</country>
    <diff>15:36</diff>
    <green>+02:00:00</green>
    <la_dir>NORTH</la_dir>
    <latitude>44.30</latitude>
    <lo_dir>EAST</lo_dir>
    <longitude>26.06</longitude>
    <sign>+1</sign>
    <sn>136</sn>
  </loctest>
  <loctest>
    <city>BLACKSBURG</city>
    <country>VIRGINIA</country>
    <diff>21:36</diff>
    <green>-05:00:00</green>
    <la_dir>NORTH</la_dir>
    <latitude>37.12</latitude>
    <lo_dir>WEST</lo_dir>
    <longitude>80.24</longitude>
    <sign>-1</sign>
    <sn>137</sn>
  </loctest>
  <loctest>
    <city>BRYCE CANYON</city>
    <country>UTAH</country>
    <diff>28:36</diff>
    <green>-07:00:00</green>
    <la_dir>NORTH</la_dir>
    <latitude>37.42</latitude>
    <lo_dir>WEST</lo_dir>
    <longitude>112.09</longitude>
    <sign>-1</sign>
    <sn>138</sn>
  </loctest>
  <loctest>
    <city>BARCELONA</city>
    <country>SPAIN</country>
    <diff>51:36</diff>
    <green>+01:00:00</green>
    <la_dir>NORTH</la_dir>
    <latitude>41.18</latitude>
    <lo_dir>EAST</lo_dir>
    <longitude>2.06</longitude>
    <sign>+1</sign>
    <sn>139</sn>
  </loctest>
  <loctest>
    <city>BOCA RATON</city>
    <country>FLORIDA</country>
    <diff>20:28</diff>
    <green>-05:00:00</green>
    <la_dir>NORTH</la_dir>
    <latitude>26.22</latitude>
    <lo_dir>WEST</lo_dir>
    <longitude>80.07</longitude>
    <sign>-1</sign>
    <sn>140</sn>
  </loctest>
  <loctest>
    <city>HAMILTON</city>
    <country>BERMUDA</country>
    <diff>18:44</diff>
    <green>-04:00:00</green>
    <la_dir>NORTH</la_dir>
    <latitude>32.22</latitude>
    <lo_dir>WEST</lo_dir>
    <longitude>64.41</longitude>
    <sign>-1</sign>
    <sn>141</sn>
  </loctest>
  <loctest>
    <city>BAUDETTE</city>
    <country>MINNESOTA</country>
    <diff>18:24</diff>
    <green>-06:00:00</green>
    <la_dir>NORTH</la_dir>
    <latitude>48.43</latitude>
    <lo_dir>WEST</lo_dir>
    <longitude>94.36</longitude>
    <sign>-1</sign>
    <sn>142</sn>
  </loctest>
  <loctest>
    <city>BLANDING</city>
    <country>UTAH</country>
    <diff>17:56</diff>
    <green>-07:00:00</green>
    <la_dir>NORTH</la_dir>
    <latitude>37.35</latitude>
    <lo_dir>WEST</lo_dir>
    <longitude>109.29</longitude>
    <sign>-1</sign>
    <sn>143</sn>
  </loctest>
  <loctest>
    <city>BANDAR LENGEH</city>
    <country>IRAN</country>
    <diff>39:16</diff>
    <green>+03:00:00</green>
    <la_dir>NORTH</la_dir>
    <latitude>26.32</latitude>
    <lo_dir>EAST</lo_dir>
    <longitude>54.49</longitude>
    <sign>-1</sign>
    <sn>144</sn>
  </loctest>
  <loctest>
    <city>HARTFORD</city>
    <country>CT</country>
    <diff>9:16</diff>
    <green>-05:00:00</green>
    <la_dir>NORTH</la_dir>
    <latitude>41.56</latitude>
    <lo_dir>WEST</lo_dir>
    <longitude>72.41</longitude>
    <sign>+1</sign>
    <sn>145</sn>
  </loctest>
  <loctest>
    <city>BANDIRMA</city>
    <country>TURKEY</country>
    <diff>68:4</diff>
    <green>+03:00:00</green>
    <la_dir>NORTH</la_dir>
    <latitude>40.19</latitude>
    <lo_dir>EAST</lo_dir>
    <longitude>27.59</longitude>
    <sign>+1</sign>
    <sn>146</sn>
  </loctest>
  <loctest>
    <city>VADODARA</city>
    <country>INDIA</country>
    <diff>57:8</diff>
    <green>+05:50:00</green>
    <la_dir>NORTH</la_dir>
    <latitude>22.20</latitude>
    <lo_dir>EAST</lo_dir>
    <longitude>73.13</longitude>
    <sign>+1</sign>
    <sn>147</sn>
  </loctest>
  <loctest>
    <city>BRIDGEPORT</city>
    <country>CT</country>
    <diff>7:32</diff>
    <green>-05:00:00</green>
    <la_dir>NORTH</la_dir>
    <latitude>41.10</latitude>
    <lo_dir>WEST</lo_dir>
    <longitude>73.07</longitude>
    <sign>+1</sign>
    <sn>148</sn>
  </loctest>
  <loctest>
    <city>BRINDISI</city>
    <country>ITALY</country>
    <diff>11:48</diff>
    <green>+01:00:00</green>
    <la_dir>NORTH</la_dir>
    <latitude>40.39</latitude>
    <lo_dir>EAST</lo_dir>
    <longitude>17.57</longitude>
    <sign>-1</sign>
    <sn>149</sn>
  </loctest>
  <loctest>
    <city>BARDUFOSS</city>
    <country>NORWAY</country>
    <diff>14:8</diff>
    <green>+01:00:00</green>
    <la_dir>NORTH</la_dir>
    <latitude>69.3</latitude>
    <lo_dir>EAST</lo_dir>
    <longitude>18.32</longitude>
    <sign>-1</sign>
    <sn>150</sn>
  </loctest>
  <loctest>
    <city>BEDFORD</city>
    <country>MA</country>
    <diff>14:52</diff>
    <green>-05:00:00</green>
    <la_dir>NORTH</la_dir>
    <latitude>42.28</latitude>
    <lo_dir>WEST</lo_dir>
    <longitude>71.17</longitude>
    <sign>+1</sign>
    <sn>151</sn>
  </loctest>
  <loctest>
    <city>BELGRADE</city>
    <country>YUGOSLAVIA</country>
    <diff>21:16</diff>
    <green>+01:00:00</green>
    <la_dir>NORTH</la_dir>
    <latitude>44.49</latitude>
    <lo_dir>EAST</lo_dir>
    <longitude>20.19</longitude>
    <sign>-1</sign>
    <sn>152</sn>
  </loctest>
  <loctest>
    <city>BENTON HARBOR</city>
    <country>MI</country>
    <diff>45:44</diff>
    <green>-05:00:00</green>
    <la_dir>NORTH</la_dir>
    <latitude>42.8</latitude>
    <lo_dir>WEST</lo_dir>
    <longitude>86.26</longitude>
    <sign>-1</sign>
    <sn>153</sn>
  </loctest>
  <loctest>
    <city>BELEM</city>
    <country>BRAZIL</country>
    <diff>13:56</diff>
    <green>-03:00:00</green>
    <la_dir>SOUTH</la_dir>
    <latitude>1.23</latitude>
    <lo_dir>WEST</lo_dir>
    <longitude>48.29</longitude>
    <sign>-1</sign>
    <sn>154</sn>
  </loctest>
  <loctest>
    <city>BENGHAZI</city>
    <country>LIBYA</country>
    <diff>38:52</diff>
    <green>+02:00:00</green>
    <la_dir>NORTH</la_dir>
    <latitude>32.6</latitude>
    <lo_dir>EAST</lo_dir>
    <longitude>20.17</longitude>
    <sign>+1</sign>
    <sn>155</sn>
  </loctest>
  <loctest>
    <city>BREST</city>
    <country>FRANCE</country>
    <diff>42:20</diff>
    <green>+01:00:00</green>
    <la_dir>NORTH</la_dir>
    <latitude>48.27</latitude>
    <lo_dir>WEST</lo_dir>
    <longitude>4.25</longitude>
    <sign>+1</sign>
    <sn>156</sn>
  </loctest>
  <loctest>
    <city>BETHEL</city>
    <country>ALASKA</country>
    <diff>107:20</diff>
    <green>-09:00:00</green>
    <la_dir>NORTH</la_dir>
    <latitude>60.47</latitude>
    <lo_dir>WEST</lo_dir>
    <longitude>161.50</longitude>
    <sign>-1</sign>
    <sn>157</sn>
  </loctest>
  <loctest>
    <city>BEIRA</city>
    <country>MOZAMBIQUE</country>
    <diff>19:40</diff>
    <green>+02:00:00</green>
    <la_dir>SOUTH</la_dir>
    <latitude>19.48</latitude>
    <lo_dir>EAST</lo_dir>
    <longitude>34.55</longitude>
    <sign>-1</sign>
    <sn>158</sn>
  </loctest>
  <loctest>
    <city>BEIRUT</city>
    <country>LEBANON</country>
    <diff>21:56</diff>
    <green>+02:00:00</green>
    <la_dir>NORTH</la_dir>
    <latitude>33.49</latitude>
    <lo_dir>EAST</lo_dir>
    <longitude>35.29</longitude>
    <sign>-1</sign>
    <sn>159</sn>
  </loctest>
  <loctest>
    <city>BRADFORD</city>
    <country>PA</country>
    <diff>14:32</diff>
    <green>-05:00:00</green>
    <la_dir>NORTH</la_dir>
    <latitude>41.48</latitude>
    <lo_dir>WEST</lo_dir>
    <longitude>78.38</longitude>
    <sign>-1</sign>
    <sn>160</sn>
  </loctest>
  <loctest>
    <city>SCOTTSBLUFF</city>
    <country>NE</country>
    <diff>5:36</diff>
    <green>-07:00:00</green>
    <la_dir>NORTH</la_dir>
    <latitude>41.53</latitude>
    <lo_dir>WEST</lo_dir>
    <longitude>103.36</longitude>
    <sign>+1</sign>
    <sn>161</sn>
  </loctest>
  <loctest>
    <city>SEATTLE</city>
    <country>WASHINGTON</country>
    <diff>9:12</diff>
    <green>-08:00:00</green>
    <la_dir>NORTH</la_dir>
    <latitude>47.32</latitude>
    <lo_dir>WEST</lo_dir>
    <longitude>122.18</longitude>
    <sign>-1</sign>
    <sn>162</sn>
  </loctest>
  <loctest>
    <city>BAKERSFIELD</city>
    <country>CA</country>
    <diff>3:48</diff>
    <green>-08:00:00</green>
    <la_dir>NORTH</la_dir>
    <latitude>35.26</latitude>
    <lo_dir>WEST</lo_dir>
    <longitude>119.03</longitude>
    <sign>+1</sign>
    <sn>163</sn>
  </loctest>
  <loctest>
    <city>MOBILE</city>
    <country>ALABAMA</country>
    <diff>7:44</diff>
    <green>-06:00:00</green>
    <la_dir>NORTH</la_dir>
    <latitude>30.38</latitude>
    <lo_dir>WEST</lo_dir>
    <longitude>88.04</longitude>
    <sign>+1</sign>
    <sn>164</sn>
  </loctest>
  <loctest>
    <city>BLOEMFONTEIN</city>
    <country>ZA</country>
    <diff>14:48</diff>
    <green>+02:00:00</green>
    <la_dir>SOUTH</la_dir>
    <latitude>29.6</latitude>
    <lo_dir>EAST</lo_dir>
    <longitude>26.18</longitude>
    <sign>+1</sign>
    <sn>165</sn>
  </loctest>
  <loctest>
    <city>BELFAST</city>
    <country>UK</country>
    <diff>24:56</diff>
    <green>00:00:00</green>
    <la_dir>NORTH</la_dir>
    <latitude>54.39</latitude>
    <lo_dir>WEST</lo_dir>
    <longitude>6.14</longitude>
    <sign>-1</sign>
    <sn>166</sn>
  </loctest>
  <loctest>
    <city>BUCARAMANGA</city>
    <country>COLOMBIA</country>
    <diff>7:28</diff>
    <green>-05:00:00</green>
    <la_dir>NORTH</la_dir>
    <latitude>7.6</latitude>
    <lo_dir>WEST</lo_dir>
    <longitude>73.08</longitude>
    <sign>+1</sign>
    <sn>167</sn>
  </loctest>
  <loctest>
    <city>BORGER</city>
    <country>TEXAS</country>
    <diff>45:36</diff>
    <green>-06:00:00</green>
    <la_dir>NORTH</la_dir>
    <latitude>35.42</latitude>
    <lo_dir>WEST</lo_dir>
    <longitude>101.24</longitude>
    <sign>-1</sign>
    <sn>168</sn>
  </loctest>
  <loctest>
    <city>BANGUI C.</city>
    <country>C. AFERICA</country>
    <diff>14:4</diff>
    <green>+01:00:00</green>
    <la_dir>NORTH</la_dir>
    <latitude>4.24</latitude>
    <lo_dir>EAST</lo_dir>
    <longitude>18.31</longitude>
    <sign>-1</sign>
    <sn>169</sn>
  </loctest>
  <loctest>
    <city>BRIDGETOWN</city>
    <country>BARBADOS</country>
    <diff>2:0</diff>
    <green>-04:00:00</green>
    <la_dir>NORTH</la_dir>
    <latitude>13.4</latitude>
    <lo_dir>WEST</lo_dir>
    <longitude>59.30</longitude>
    <sign>+1</sign>
    <sn>170</sn>
  </loctest>
  <loctest>
    <city>BINGHAMTON</city>
    <country>NEW YORK</country>
    <diff>3:52</diff>
    <green>-05:00:00</green>
    <la_dir>NORTH</la_dir>
    <latitude>42.12</latitude>
    <lo_dir>WEST</lo_dir>
    <longitude>75.58</longitude>
    <sign>-1</sign>
    <sn>171</sn>
  </loctest>
  <loctest>
    <city>BERGEN</city>
    <country>NORWAY</country>
    <diff>39:8</diff>
    <green>+01:00:00</green>
    <la_dir>NORTH</la_dir>
    <latitude>60.18</latitude>
    <lo_dir>EAST</lo_dir>
    <longitude>5.13</longitude>
    <sign>+1</sign>
    <sn>172</sn>
  </loctest>
  <loctest>
    <city>BANGOR</city>
    <country>MAINE</country>
    <diff>24:40</diff>
    <green>-05:00:00</green>
    <la_dir>NORTH</la_dir>
    <latitude>44.48</latitude>
    <lo_dir>WEST</lo_dir>
    <longitude>68.50</longitude>
    <sign>+1</sign>
    <sn>173</sn>
  </loctest>
  <loctest>
    <city>BERGAMO</city>
    <country>ITALY</country>
    <diff>21:12</diff>
    <green>+01:00:00</green>
    <la_dir>NORTH</la_dir>
    <latitude>45.40</latitude>
    <lo_dir>EAST</lo_dir>
    <longitude>9.42</longitude>
    <sign>+1</sign>
    <sn>174</sn>
  </loctest>
  <loctest>
    <city>BAR HARBOR</city>
    <country>MAINE</country>
    <diff>26:32</diff>
    <green>-05:00:00</green>
    <la_dir>NORTH</la_dir>
    <latitude>44.27</latitude>
    <lo_dir>WEST</lo_dir>
    <longitude>68.22</longitude>
    <sign>+1</sign>
    <sn>175</sn>
  </loctest>
  <loctest>
    <city>BISHA</city>
    <country>SAUDIA ARABIA</country>
    <diff>9:28</diff>
    <green>+03:00:00</green>
    <la_dir>NORTH</la_dir>
    <latitude>19.59</latitude>
    <lo_dir>EAST</lo_dir>
    <longitude>42.38</longitude>
    <sign>+1</sign>
    <sn>176</sn>
  </loctest>
  <loctest>
    <city>BAHIA BLANCA</city>
    <country>AR</country>
    <diff>68:36</diff>
    <green>-03:00:00</green>
    <la_dir>SOUTH</la_dir>
    <latitude>38.44</latitude>
    <lo_dir>WEST</lo_dir>
    <longitude>62.09</longitude>
    <sign>-1</sign>
    <sn>177</sn>
  </loctest>
  <loctest>
    <city>BHUJ</city>
    <country>INDIA</country>
    <diff>71:20</diff>
    <green>+05:50:00</green>
    <la_dir>NORTH</la_dir>
    <latitude>23.17</latitude>
    <lo_dir>EAST</lo_dir>
    <longitude>69.40</longitude>
    <sign>+1</sign>
    <sn>178</sn>
  </loctest>
  <loctest>
    <city>BIRMINGHAM</city>
    <country>UK</country>
    <diff>7:0</diff>
    <green>00:00:00</green>
    <la_dir>NORTH</la_dir>
    <latitude>52.27</latitude>
    <lo_dir>WEST</lo_dir>
    <longitude>1.45</longitude>
    <sign>-1</sign>
    <sn>179</sn>
  </loctest>
  <loctest>
    <city>BELO HORIZONTE</city>
    <country>BRAZ</country>
    <diff>4:8</diff>
    <green>-03:00:00</green>
    <la_dir>SOUTH</la_dir>
    <latitude>19.45</latitude>
    <lo_dir>WEST</lo_dir>
    <longitude>43.58</longitude>
    <sign>+1</sign>
    <sn>180</sn>
  </loctest>
  <loctest>
    <city>BASTIA</city>
    <country>CORSICA FRA</country>
    <diff>22:4</diff>
    <green>+01:00:00</green>
    <la_dir>NORTH</la_dir>
    <latitude>42.33</latitude>
    <lo_dir>EAST</lo_dir>
    <longitude>9.29</longitude>
    <sign>+1</sign>
    <sn>181</sn>
  </loctest>
  <loctest>
    <city>BEATRICE</city>
    <country>NEBRASKA</country>
    <diff>27:0</diff>
    <green>-06:00:00</green>
    <la_dir>NORTH</la_dir>
    <latitude>40.18</latitude>
    <lo_dir>WEST</lo_dir>
    <longitude>96.45</longitude>
    <sign>-1</sign>
    <sn>182</sn>
  </loctest>
  <loctest>
    <city>EL PASO</city>
    <country>TEXAS</country>
    <diff>65:32</diff>
    <green>-06:00:00</green>
    <la_dir>NORTH</la_dir>
    <latitude>31.51</latitude>
    <lo_dir>WEST</lo_dir>
    <longitude>106.23</longitude>
    <sign>-1</sign>
    <sn>183</sn>
  </loctest>
  <loctest>
    <city>BIG DELTA</city>
    <country>ALASKA</country>
    <diff>42:52</diff>
    <green>-09:00:00</green>
    <la_dir>NORTH</la_dir>
    <latitude>63.60</latitude>
    <lo_dir>WEST</lo_dir>
    <longitude>145.43</longitude>
    <sign>-1</sign>
    <sn>184</sn>
  </loctest>
  <loctest>
    <city>BISHOP</city>
    <country>CALIFORNIA</country>
    <diff>6:32</diff>
    <green>-08:00:00</green>
    <la_dir>NORTH</la_dir>
    <latitude>37.22</latitude>
    <lo_dir>WEST</lo_dir>
    <longitude>118.22</longitude>
    <sign>+1</sign>
    <sn>185</sn>
  </loctest>
  <loctest>
    <city>BIAK</city>
    <country>INDONESIA</country>
    <diff>124:20</diff>
    <green>+07:00:00</green>
    <la_dir>SOUTH</la_dir>
    <latitude>1.11</latitude>
    <lo_dir>EAST</lo_dir>
    <longitude>136.05</longitude>
    <sign>-1</sign>
    <sn>186</sn>
  </loctest>
  <loctest>
    <city>BILLINGS</city>
    <country>MONTANA</country>
    <diff>14:12</diff>
    <green>-07:00:00</green>
    <la_dir>NORTH</la_dir>
    <latitude>45.48</latitude>
    <lo_dir>WEST</lo_dir>
    <longitude>108.33</longitude>
    <sign>-1</sign>
    <sn>187</sn>
  </loctest>
  <loctest>
    <city>BILBAO</city>
    <country>SPAIN</country>
    <diff>48:20</diff>
    <green>+01:00:00</green>
    <la_dir>NORTH</la_dir>
    <latitude>43.18</latitude>
    <lo_dir>WEST</lo_dir>
    <longitude>2.55</longitude>
    <sign>+1</sign>
    <sn>188</sn>
  </loctest>
  <loctest>
    <city>BIARRITZ</city>
    <country>FRANCE</country>
    <diff>53:56</diff>
    <green>+01:00:00</green>
    <la_dir>NORTH</la_dir>
    <latitude>43.28</latitude>
    <lo_dir>WEST</lo_dir>
    <longitude>1.31</longitude>
    <sign>+1</sign>
    <sn>189</sn>
  </loctest>
  <loctest>
    <city>BISMARCK/MANDAN</city>
    <country>ND</country>
    <diff>43:0</diff>
    <green>-06:00:00</green>
    <la_dir>NORTH</la_dir>
    <latitude>46.47</latitude>
    <lo_dir>WEST</lo_dir>
    <longitude>100.45</longitude>
    <sign>-1</sign>
    <sn>190</sn>
  </loctest>
  <loctest>
    <city>BILOXI</city>
    <country>MISSISSIPPI</country>
    <diff>4:20</diff>
    <green>-06:00:00</green>
    <la_dir>NORTH</la_dir>
    <latitude>30.25</latitude>
    <lo_dir>WEST</lo_dir>
    <longitude>88.55</longitude>
    <sign>+1</sign>
    <sn>191</sn>
  </loctest>
  <loctest>
    <city>BROOMFIELD</city>
    <country>COLORADO</country>
    <diff>420:28</diff>
    <green>00:00:00</green>
    <la_dir>NORTH</la_dir>
    <latitude>39.54</latitude>
    <lo_dir>WEST</lo_dir>
    <longitude>105.07</longitude>
    <sign>-1</sign>
    <sn>192</sn>
  </loctest>
  <loctest>
    <city>BEMIDJI</city>
    <country>MINNESOTA</country>
    <diff>19:44</diff>
    <green>-06:00:00</green>
    <la_dir>NORTH</la_dir>
    <latitude>47.31</latitude>
    <lo_dir>WEST</lo_dir>
    <longitude>94.56</longitude>
    <sign>-1</sign>
    <sn>193</sn>
  </loctest>
  <loctest>
    <city>WOOSTER</city>
    <country>OHIO</country>
    <diff>27:32</diff>
    <green>-05:00:00</green>
    <la_dir>NORTH</la_dir>
    <latitude>40.52</latitude>
    <lo_dir>WEST</lo_dir>
    <longitude>81.53</longitude>
    <sign>-1</sign>
    <sn>194</sn>
  </loctest>
  <loctest>
    <city>BANJUL</city>
    <country>GAMBIA</country>
    <diff>66:36</diff>
    <green>00:00:00</green>
    <la_dir>NORTH</la_dir>
    <latitude>13.20</latitude>
    <lo_dir>WEST</lo_dir>
    <longitude>16.39</longitude>
    <sign>-1</sign>
    <sn>195</sn>
  </loctest>
  <loctest>
    <city>BUJUMBURA</city>
    <country>BURUNDI</country>
    <diff>2:44</diff>
    <green>+02:00:00</green>
    <la_dir>SOUTH</la_dir>
    <latitude>3.20</latitude>
    <lo_dir>EAST</lo_dir>
    <longitude>29.19</longitude>
    <sign>+1</sign>
    <sn>196</sn>
  </loctest>
  <loctest>
    <city>BADAJOZ</city>
    <country>SPAIN</country>
    <diff>32:44</diff>
    <green>+01:00:00</green>
    <la_dir>NORTH</la_dir>
    <latitude>38.54</latitude>
    <lo_dir>WEST</lo_dir>
    <longitude>6.49</longitude>
    <sign>+1</sign>
    <sn>197</sn>
  </loctest>
  <loctest>
    <city>BAKER</city>
    <country>OREGON</country>
    <diff>8:44</diff>
    <green>-08:00:00</green>
    <la_dir>NORTH</la_dir>
    <latitude>44.50</latitude>
    <lo_dir>WEST</lo_dir>
    <longitude>117.49</longitude>
    <sign>+1</sign>
    <sn>198</sn>
  </loctest>
  <loctest>
    <city>BROOKS LAKE</city>
    <country>ALASKA</country>
    <diff>84:56</diff>
    <green>-09:00:00</green>
    <la_dir>NORTH</la_dir>
    <latitude>58.36</latitude>
    <lo_dir>WEST</lo_dir>
    <longitude>156.14</longitude>
    <sign>-1</sign>
    <sn>199</sn>
  </loctest>
  <loctest>
    <city>BANGKOK</city>
    <country>THAILAND</country>
    <diff>17:32</diff>
    <green>+07:00:00</green>
    <la_dir>NORTH</la_dir>
    <latitude>13.55</latitude>
    <lo_dir>EAST</lo_dir>
    <longitude>100.37</longitude>
    <sign>+1</sign>
    <sn>200</sn>
  </loctest>
  <loctest>
    <city>CLEVELAND</city>
    <country>OHIO</country>
    <diff>26:44</diff>
    <green>-05:00:00</green>
    <la_dir>NORTH</la_dir>
    <latitude>41.31</latitude>
    <lo_dir>WEST</lo_dir>
    <longitude>81.41</longitude>
    <sign>-1</sign>
    <sn>201</sn>
  </loctest>
  <loctest>
    <city>BAMAKO</city>
    <country>MALI</country>
    <diff>32:8</diff>
    <green>00:00:00</green>
    <la_dir>NORTH</la_dir>
    <latitude>12.38</latitude>
    <lo_dir>WEST</lo_dir>
    <longitude>8.02</longitude>
    <sign>-1</sign>
    <sn>202</sn>
  </loctest>
  <loctest>
    <city>BECKLEY</city>
    <country>WV</country>
    <diff>24:28</diff>
    <green>-05:00:00</green>
    <la_dir>NORTH</la_dir>
    <latitude>37.47</latitude>
    <lo_dir>WEST</lo_dir>
    <longitude>81.07</longitude>
    <sign>-1</sign>
    <sn>203</sn>
  </loctest>
  <loctest>
    <city>BROOKINGS</city>
    <country>SD</country>
    <diff>27:16</diff>
    <green>-06:00:00</green>
    <la_dir>NORTH</la_dir>
    <latitude>44.18</latitude>
    <lo_dir>WEST</lo_dir>
    <longitude>96.49</longitude>
    <sign>-1</sign>
    <sn>204</sn>
  </loctest>
  <loctest>
    <city>BORLANGE</city>
    <country>SWEDEN</country>
    <diff>2:4</diff>
    <green>+01:00:00</green>
    <la_dir>NORTH</la_dir>
    <latitude>60.25</latitude>
    <lo_dir>EAST</lo_dir>
    <longitude>15.31</longitude>
    <sign>-1</sign>
    <sn>205</sn>
  </loctest>
  <loctest>
    <city>PRINCETON</city>
    <country>WV</country>
    <diff>24:48</diff>
    <green>-05:00:00</green>
    <la_dir>NORTH</la_dir>
    <latitude>37.18</latitude>
    <lo_dir>WEST</lo_dir>
    <longitude>81.12</longitude>
    <sign>-1</sign>
    <sn>206</sn>
  </loctest>
  <loctest>
    <city>BLYTHE</city>
    <country>CALIFORNIA</country>
    <diff>21:8</diff>
    <green>-08:00:00</green>
    <la_dir>NORTH</la_dir>
    <latitude>33.37</latitude>
    <lo_dir>WEST</lo_dir>
    <longitude>114.43</longitude>
    <sign>+1</sign>
    <sn>207</sn>
  </loctest>
  <loctest>
    <city>BELLINGHAM</city>
    <country>WA</country>
    <diff>10:8</diff>
    <green>-08:00:00</green>
    <la_dir>NORTH</la_dir>
    <latitude>48.48</latitude>
    <lo_dir>WEST</lo_dir>
    <longitude>122.32</longitude>
    <sign>-1</sign>
    <sn>208</sn>
  </loctest>
  <loctest>
    <city>BILLUND</city>
    <country>DENMARK</country>
    <diff>23:24</diff>
    <green>+01:00:00</green>
    <la_dir>NORTH</la_dir>
    <latitude>55.44</latitude>
    <lo_dir>EAST</lo_dir>
    <longitude>9.09</longitude>
    <sign>+1</sign>
    <sn>209</sn>
  </loctest>
  <loctest>
    <city>BELMAR</city>
    <country>NEW JERSEY</country>
    <diff>3:28</diff>
    <green>-05:00:00</green>
    <la_dir>NORTH</la_dir>
    <latitude>40.11</latitude>
    <lo_dir>WEST</lo_dir>
    <longitude>74.08</longitude>
    <sign>+1</sign>
    <sn>210</sn>
  </loctest>
  <loctest>
    <city>BOLOGNA</city>
    <country>ITALY</country>
    <diff>14:48</diff>
    <green>+01:00:00</green>
    <la_dir>NORTH</la_dir>
    <latitude>44.32</latitude>
    <lo_dir>EAST</lo_dir>
    <longitude>11.18</longitude>
    <sign>+1</sign>
    <sn>211</sn>
  </loctest>
  <loctest>
    <city>BANGALORE</city>
    <country>INDIA</country>
    <diff>39:20</diff>
    <green>+05:50:00</green>
    <la_dir>NORTH</la_dir>
    <latitude>12.57</latitude>
    <lo_dir>EAST</lo_dir>
    <longitude>77.40</longitude>
    <sign>+1</sign>
    <sn>212</sn>
  </loctest>
  <loctest>
    <city>BELLEVILLE</city>
    <country>ILLINOIS</country>
    <diff>0:36</diff>
    <green>-06:00:00</green>
    <la_dir>NORTH</la_dir>
    <latitude>38.33</latitude>
    <lo_dir>WEST</lo_dir>
    <longitude>89.51</longitude>
    <sign>+1</sign>
    <sn>213</sn>
  </loctest>
  <loctest>
    <city>BLANTYRE</city>
    <country>MALAWI</country>
    <diff>19:52</diff>
    <green>+02:00:00</green>
    <la_dir>SOUTH</la_dir>
    <latitude>15.40</latitude>
    <lo_dir>EAST</lo_dir>
    <longitude>34.58</longitude>
    <sign>-1</sign>
    <sn>214</sn>
  </loctest>
  <loctest>
    <city>BRIGHAM CITY</city>
    <country>UTAH</country>
    <diff>28:16</diff>
    <green>-07:00:00</green>
    <la_dir>NORTH</la_dir>
    <latitude>41.33</latitude>
    <lo_dir>WEST</lo_dir>
    <longitude>112.04</longitude>
    <sign>-1</sign>
    <sn>215</sn>
  </loctest>
  <loctest>
    <city>BLOOMINGTON</city>
    <country>IL</country>
    <diff>4:16</diff>
    <green>-06:00:00</green>
    <la_dir>NORTH</la_dir>
    <latitude>40.29</latitude>
    <lo_dir>WEST</lo_dir>
    <longitude>88.56</longitude>
    <sign>+1</sign>
    <sn>216</sn>
  </loctest>
  <loctest>
    <city>NASHVILLE</city>
    <country>TENNESSEE</country>
    <diff>13:16</diff>
    <green>-06:00:00</green>
    <la_dir>NORTH</la_dir>
    <latitude>36.8</latitude>
    <lo_dir>WEST</lo_dir>
    <longitude>86.41</longitude>
    <sign>+1</sign>
    <sn>217</sn>
  </loctest>
  <loctest>
    <city>BANDAR ABBAS</city>
    <country>IRAN</country>
    <diff>45:32</diff>
    <green>+03:00:00</green>
    <la_dir>NORTH</la_dir>
    <latitude>27.14</latitude>
    <lo_dir>EAST</lo_dir>
    <longitude>56.23</longitude>
    <sign>-1</sign>
    <sn>218</sn>
  </loctest>
  <loctest>
    <city>BRISBANE</city>
    <country>AUSTRALIA</country>
    <diff>12:20</diff>
    <green>+10:00:00</green>
    <la_dir>SOUTH</la_dir>
    <latitude>27.26</latitude>
    <lo_dir>EAST</lo_dir>
    <longitude>153.05</longitude>
    <sign>-1</sign>
    <sn>219</sn>
  </loctest>
  <loctest>
    <city>BENIN CITY</city>
    <country>NIGERIA</country>
    <diff>37:36</diff>
    <green>+01:00:00</green>
    <la_dir>NORTH</la_dir>
    <latitude>6.19</latitude>
    <lo_dir>EAST</lo_dir>
    <longitude>5.36</longitude>
    <sign>+1</sign>
    <sn>220</sn>
  </loctest>
  <loctest>
    <city>BURNS</city>
    <country>OREGON</country>
    <diff>4:12</diff>
    <green>-08:00:00</green>
    <la_dir>NORTH</la_dir>
    <latitude>43.35</latitude>
    <lo_dir>WEST</lo_dir>
    <longitude>118.57</longitude>
    <sign>+1</sign>
    <sn>221</sn>
  </loctest>
  <loctest>
    <city>BORDEAUX</city>
    <country>FRANCE</country>
    <diff>57:8</diff>
    <green>+01:00:00</green>
    <la_dir>NORTH</la_dir>
    <latitude>44.50</latitude>
    <lo_dir>WEST</lo_dir>
    <longitude>0.43</longitude>
    <sign>+1</sign>
    <sn>222</sn>
  </loctest>
  <loctest>
    <city>BOGOTA</city>
    <country>COLOMBIA</country>
    <diff>296:36</diff>
    <green>00:00:00</green>
    <la_dir>NORTH</la_dir>
    <latitude>4.42</latitude>
    <lo_dir>WEST</lo_dir>
    <longitude>74.09</longitude>
    <sign>-1</sign>
    <sn>223</sn>
  </loctest>
  <loctest>
    <city>BOISE</city>
    <country>IDAHO</country>
    <diff>44:56</diff>
    <green>-07:00:00</green>
    <la_dir>NORTH</la_dir>
    <latitude>43.34</latitude>
    <lo_dir>WEST</lo_dir>
    <longitude>116.14</longitude>
    <sign>-1</sign>
    <sn>224</sn>
  </loctest>
  <loctest>
    <city>BOURGAS</city>
    <country>BULGARIA</country>
    <diff>10:52</diff>
    <green>+02:00:00</green>
    <la_dir>NORTH</la_dir>
    <latitude>42.25</latitude>
    <lo_dir>EAST</lo_dir>
    <longitude>27.17</longitude>
    <sign>+1</sign>
    <sn>225</sn>
  </loctest>
  <loctest>
    <city>BOMBAY</city>
    <country>INDIA</country>
    <diff>58:36</diff>
    <green>+05:50:00</green>
    <la_dir>NORTH</la_dir>
    <latitude>19.5</latitude>
    <lo_dir>EAST</lo_dir>
    <longitude>72.51</longitude>
    <sign>+1</sign>
    <sn>226</sn>
  </loctest>
  <loctest>
    <city>BONAIRE</city>
    <country>ANTILLES</country>
    <diff>33:4</diff>
    <green>-04:00:00</green>
    <la_dir>NORTH</la_dir>
    <latitude>12.8</latitude>
    <lo_dir>WEST</lo_dir>
    <longitude>68.16</longitude>
    <sign>-1</sign>
    <sn>227</sn>
  </loctest>
  <loctest>
    <city>BODO</city>
    <country>NORWAY</country>
    <diff>2:32</diff>
    <green>+01:00:00</green>
    <la_dir>NORTH</la_dir>
    <latitude>67.16</latitude>
    <lo_dir>EAST</lo_dir>
    <longitude>14.22</longitude>
    <sign>+1</sign>
    <sn>228</sn>
  </loctest>
  <loctest>
    <city>BELFORT</city>
    <country>FRANCE</country>
    <diff>31:56</diff>
    <green>+01:00:00</green>
    <la_dir>NORTH</la_dir>
    <latitude>47.39</latitude>
    <lo_dir>EAST</lo_dir>
    <longitude>7.01</longitude>
    <sign>+1</sign>
    <sn>229</sn>
  </loctest>
  <loctest>
    <city>BOSTON</city>
    <country>MA</country>
    <diff>16:0</diff>
    <green>-05:00:00</green>
    <la_dir>NORTH</la_dir>
    <latitude>42.22</latitude>
    <lo_dir>WEST</lo_dir>
    <longitude>71.00</longitude>
    <sign>+1</sign>
    <sn>230</sn>
  </loctest>
  <loctest>
    <city>BOBO DIOULASSO</city>
    <country>BF</country>
    <diff>17:20</diff>
    <green>00:00:00</green>
    <la_dir>NORTH</la_dir>
    <latitude>11.10</latitude>
    <lo_dir>WEST</lo_dir>
    <longitude>4.20</longitude>
    <sign>-1</sign>
    <sn>231</sn>
  </loctest>
  <loctest>
    <city>BEAUMONT</city>
    <country>TEXAS</country>
    <diff>16:4</diff>
    <green>-06:00:00</green>
    <la_dir>NORTH</la_dir>
    <latitude>29.57</latitude>
    <lo_dir>WEST</lo_dir>
    <longitude>94.01</longitude>
    <sign>-1</sign>
    <sn>232</sn>
  </loctest>
  <loctest>
    <city>BRUNSWICK</city>
    <country>GEORGIA</country>
    <diff>25:52</diff>
    <green>-05:00:00</green>
    <la_dir>NORTH</la_dir>
    <latitude>31.16</latitude>
    <lo_dir>WEST</lo_dir>
    <longitude>81.28</longitude>
    <sign>-1</sign>
    <sn>233</sn>
  </loctest>
  <loctest>
    <city>AGUADILLA</city>
    <country>PR</country>
    <diff>28:32</diff>
    <green>-04:00:00</green>
    <la_dir>NORTH</la_dir>
    <latitude>18.30</latitude>
    <lo_dir>WEST</lo_dir>
    <longitude>67.08</longitude>
    <sign>-1</sign>
    <sn>234</sn>
  </loctest>
  <loctest>
    <city>SAN CARLOS DEBAR.</city>
    <country>
    </country>
    <diff>104:40</diff>
    <green>-03:00:00</green>
    <la_dir>SOUTH</la_dir>
    <latitude>41.9</latitude>
    <lo_dir>WEST</lo_dir>
    <longitude>71.10</longitude>
    <sign>-1</sign>
    <sn>235</sn>
  </loctest>
  <loctest>
    <city>BRAINERD</city>
    <country>MINNESOTA</country>
    <diff>16:32</diff>
    <green>-06:00:00</green>
    <la_dir>NORTH</la_dir>
    <latitude>46.24</latitude>
    <lo_dir>WEST</lo_dir>
    <longitude>94.08</longitude>
    <sign>-1</sign>
    <sn>236</sn>
  </loctest>
  <loctest>
    <city>BREMEN</city>
    <country>GERMANY</country>
    <diff>24:52</diff>
    <green>+01:00:00</green>
    <la_dir>NORTH</la_dir>
    <latitude>53.3</latitude>
    <lo_dir>EAST</lo_dir>
    <longitude>8.47</longitude>
    <sign>+1</sign>
    <sn>237</sn>
  </loctest>
  <loctest>
    <city>BARI</city>
    <country>ITALY</country>
    <diff>7:8</diff>
    <green>+01:00:00</green>
    <la_dir>NORTH</la_dir>
    <latitude>41.8</latitude>
    <lo_dir>EAST</lo_dir>
    <longitude>16.47</longitude>
    <sign>-1</sign>
    <sn>238</sn>
  </loctest>
  <loctest>
    <city>BURLINGTON</city>
    <country>IOWA</country>
    <diff>4:28</diff>
    <green>-06:00:00</green>
    <la_dir>NORTH</la_dir>
    <latitude>40.47</latitude>
    <lo_dir>WEST</lo_dir>
    <longitude>91.07</longitude>
    <sign>-1</sign>
    <sn>239</sn>
  </loctest>
  <loctest>
    <city>BARQUISIMETO</city>
    <country>VENEZU</country>
    <diff>37:24</diff>
    <green>-04:00:00</green>
    <la_dir>NORTH</la_dir>
    <latitude>10.3</latitude>
    <lo_dir>WEST</lo_dir>
    <longitude>69.21</longitude>
    <sign>-1</sign>
    <sn>240</sn>
  </loctest>
  <loctest>
    <city>BROWNSVILLE</city>
    <country>TEXAS</country>
    <diff>29:44</diff>
    <green>-06:00:00</green>
    <la_dir>NORTH</la_dir>
    <latitude>25.54</latitude>
    <lo_dir>WEST</lo_dir>
    <longitude>97.26</longitude>
    <sign>-1</sign>
    <sn>241</sn>
  </loctest>
  <loctest>
    <city>BRISTOL</city>
    <country>UK</country>
    <diff>10:52</diff>
    <green>00:00:00</green>
    <la_dir>NORTH</la_dir>
    <latitude>51.23</latitude>
    <lo_dir>WEST</lo_dir>
    <longitude>2.43</longitude>
    <sign>-1</sign>
    <sn>242</sn>
  </loctest>
  <loctest>
    <city>BRUSSELS</city>
    <country>BELGIUM</country>
    <diff>42:0</diff>
    <green>+01:00:00</green>
    <la_dir>NORTH</la_dir>
    <latitude>50.54</latitude>
    <lo_dir>EAST</lo_dir>
    <longitude>4.30</longitude>
    <sign>+1</sign>
    <sn>243</sn>
  </loctest>
  <loctest>
    <city>BARROW</city>
    <country>ALASKA</country>
    <diff>87:4</diff>
    <green>-09:00:00</green>
    <la_dir>NORTH</la_dir>
    <latitude>71.17</latitude>
    <lo_dir>WEST</lo_dir>
    <longitude>156.46</longitude>
    <sign>-1</sign>
    <sn>244</sn>
  </loctest>
  <loctest>
    <city>BRASILIA</city>
    <country>BRAZIL</country>
    <diff>11:40</diff>
    <green>-03:00:00</green>
    <la_dir>SOUTH</la_dir>
    <latitude>15.52</latitude>
    <lo_dir>WEST</lo_dir>
    <longitude>47.55</longitude>
    <sign>-1</sign>
    <sn>245</sn>
  </loctest>
  <loctest>
    <city>BATA</city>
    <country>GQ</country>
    <diff>20:48</diff>
    <green>+01:00:00</green>
    <la_dir>NORTH</la_dir>
    <latitude>1.54</latitude>
    <lo_dir>EAST</lo_dir>
    <longitude>9.48</longitude>
    <sign>+1</sign>
    <sn>246</sn>
  </loctest>
  <loctest>
    <city>BISKRA</city>
    <country>ALGERIA</country>
    <diff>37:4</diff>
    <green>+01:00:00</green>
    <la_dir>NORTH</la_dir>
    <latitude>34.48</latitude>
    <lo_dir>EAST</lo_dir>
    <longitude>5.44</longitude>
    <sign>+1</sign>
    <sn>247</sn>
  </loctest>
  <loctest>
    <city>BASLE</city>
    <country>SWITZERLAND</country>
    <diff>29:52</diff>
    <green>+01:00:00</green>
    <la_dir>NORTH</la_dir>
    <latitude>47.35</latitude>
    <lo_dir>EAST</lo_dir>
    <longitude>7.32</longitude>
    <sign>+1</sign>
    <sn>248</sn>
  </loctest>
  <loctest>
    <city>BATTLE CREEK</city>
    <country>MI</country>
    <diff>41:0</diff>
    <green>-05:00:00</green>
    <la_dir>NORTH</la_dir>
    <latitude>42.19</latitude>
    <lo_dir>WEST</lo_dir>
    <longitude>85.15</longitude>
    <sign>-1</sign>
    <sn>249</sn>
  </loctest>
  <loctest>
    <city>BUTTE</city>
    <country>MONTANA</country>
    <diff>30:0</diff>
    <green>-07:00:00</green>
    <la_dir>NORTH</la_dir>
    <latitude>45.57</latitude>
    <lo_dir>WEST</lo_dir>
    <longitude>112.30</longitude>
    <sign>-1</sign>
    <sn>250</sn>
  </loctest>
  <loctest>
    <city>BRATISLAVA</city>
    <country>CS</country>
    <diff>8:52</diff>
    <green>+01:00:00</green>
    <la_dir>NORTH</la_dir>
    <latitude>48.10</latitude>
    <lo_dir>EAST</lo_dir>
    <longitude>17.13</longitude>
    <sign>-1</sign>
    <sn>251</sn>
  </loctest>
  <loctest>
    <city>BUDAPEST</city>
    <country>HUNGARY</country>
    <diff>16:56</diff>
    <green>+01:00:00</green>
    <la_dir>NORTH</la_dir>
    <latitude>47.26</latitude>
    <lo_dir>EAST</lo_dir>
    <longitude>19.14</longitude>
    <sign>-1</sign>
    <sn>252</sn>
  </loctest>
  <loctest>
    <city>BUFFALO</city>
    <country>NEW YORK</country>
    <diff>14:56</diff>
    <green>-05:00:00</green>
    <la_dir>NORTH</la_dir>
    <latitude>42.56</latitude>
    <lo_dir>WEST</lo_dir>
    <longitude>78.44</longitude>
    <sign>-1</sign>
    <sn>253</sn>
  </loctest>
  <loctest>
    <city>BULAWAYO</city>
    <country>ZIMBABWE</country>
    <diff>5:32</diff>
    <green>+02:00:00</green>
    <la_dir>SOUTH</la_dir>
    <latitude>20.1</latitude>
    <lo_dir>EAST</lo_dir>
    <longitude>28.37</longitude>
    <sign>+1</sign>
    <sn>254</sn>
  </loctest>
  <loctest>
    <city>BURBANK</city>
    <country>CALIFORNIA</country>
    <diff>6:36</diff>
    <green>-08:00:00</green>
    <la_dir>NORTH</la_dir>
    <latitude>34.12</latitude>
    <lo_dir>WEST</lo_dir>
    <longitude>118.21</longitude>
    <sign>+1</sign>
    <sn>255</sn>
  </loctest>
  <loctest>
    <city>BUSHEHR</city>
    <country>IRAN</country>
    <diff>23:20</diff>
    <green>+03:00:00</green>
    <la_dir>NORTH</la_dir>
    <latitude>28.57</latitude>
    <lo_dir>EAST</lo_dir>
    <longitude>50.50</longitude>
    <sign>-1</sign>
    <sn>256</sn>
  </loctest>
  <loctest>
    <city>BEAUVAIS</city>
    <country>FRANCE</country>
    <diff>51:32</diff>
    <green>+01:00:00</green>
    <la_dir>NORTH</la_dir>
    <latitude>49.27</latitude>
    <lo_dir>EAST</lo_dir>
    <longitude>2.07</longitude>
    <sign>+1</sign>
    <sn>257</sn>
  </loctest>
  <loctest>
    <city>BOA VISTA</city>
    <country>BRAZIL</country>
    <diff>62:40</diff>
    <green>-03:00:00</green>
    <la_dir>NORTH</la_dir>
    <latitude>2.50</latitude>
    <lo_dir>WEST</lo_dir>
    <longitude>60.40</longitude>
    <sign>-1</sign>
    <sn>258</sn>
  </loctest>
  <loctest>
    <city>BARTLESVILLE</city>
    <country>OK</country>
    <diff>24:4</diff>
    <green>-06:00:00</green>
    <la_dir>NORTH</la_dir>
    <latitude>36.46</latitude>
    <lo_dir>WEST</lo_dir>
    <longitude>96.01</longitude>
    <sign>-1</sign>
    <sn>259</sn>
  </loctest>
  <loctest>
    <city>BATESVILLE</city>
    <country>ARKANSAS</country>
    <diff>6:32</diff>
    <green>-06:00:00</green>
    <la_dir>NORTH</la_dir>
    <latitude>35.44</latitude>
    <lo_dir>WEST</lo_dir>
    <longitude>91.38</longitude>
    <sign>-1</sign>
    <sn>260</sn>
  </loctest>
  <loctest>
    <city>BEVERLY</city>
    <country>MA</country>
    <diff>16:20</diff>
    <green>-05:00:00</green>
    <la_dir>NORTH</la_dir>
    <latitude>42.35</latitude>
    <lo_dir>WEST</lo_dir>
    <longitude>70.55</longitude>
    <sign>+1</sign>
    <sn>261</sn>
  </loctest>
  <loctest>
    <city>BROWNWOOD</city>
    <country>TEXAS</country>
    <diff>35:48</diff>
    <green>-06:00:00</green>
    <la_dir>NORTH</la_dir>
    <latitude>31.48</latitude>
    <lo_dir>WEST</lo_dir>
    <longitude>98.57</longitude>
    <sign>-1</sign>
    <sn>262</sn>
  </loctest>
  <loctest>
    <city>BOWLING GREEN</city>
    <country>KY</country>
    <diff>14:20</diff>
    <green>-06:00:00</green>
    <la_dir>NORTH</la_dir>
    <latitude>36.58</latitude>
    <lo_dir>WEST</lo_dir>
    <longitude>86.25</longitude>
    <sign>+1</sign>
    <sn>263</sn>
  </loctest>
  <loctest>
    <city>PENANG</city>
    <country>MALAYSIA</country>
    <diff>78:24</diff>
    <green>+08:00:00</green>
    <la_dir>NORTH</la_dir>
    <latitude>5.28</latitude>
    <lo_dir>EAST</lo_dir>
    <longitude>100.24</longitude>
    <sign>+1</sign>
    <sn>264</sn>
  </loctest>
  <loctest>
    <city>BALTIMORE</city>
    <country>MARYLAND</country>
    <diff>6:40</diff>
    <green>-05:00:00</green>
    <la_dir>NORTH</la_dir>
    <latitude>39.11</latitude>
    <lo_dir>WEST</lo_dir>
    <longitude>76.40</longitude>
    <sign>-1</sign>
    <sn>265</sn>
  </loctest>
  <loctest>
    <city>BANDAR SERI BEGAWAN</city>
    <country>
    </country>
    <diff>20:16</diff>
    <green>+08:00:00</green>
    <la_dir>NORTH</la_dir>
    <latitude>4.56</latitude>
    <lo_dir>EAST</lo_dir>
    <longitude>114.56</longitude>
    <sign>+1</sign>
    <sn>266</sn>
  </loctest>
  <loctest>
    <city>WOODBRIDGE</city>
    <country>UK</country>
    <diff>5:44</diff>
    <green>00:00:00</green>
    <la_dir>NORTH</la_dir>
    <latitude>52.8</latitude>
    <lo_dir>EAST</lo_dir>
    <longitude>1.26</longitude>
    <sign>-1</sign>
    <sn>267</sn>
  </loctest>
  <loctest>
    <city>BLYTHEVILLE</city>
    <country>AR</country>
    <diff>0:12</diff>
    <green>-06:00:00</green>
    <la_dir>NORTH</la_dir>
    <latitude>35.58</latitude>
    <lo_dir>WEST</lo_dir>
    <longitude>89.57</longitude>
    <sign>+1</sign>
    <sn>268</sn>
  </loctest>
  <loctest>
    <city>BOUAKE</city>
    <country>IVORY COAST</country>
    <diff>20:16</diff>
    <green>00:00:00</green>
    <la_dir>NORTH</la_dir>
    <latitude>7.44</latitude>
    <lo_dir>WEST</lo_dir>
    <longitude>5.04</longitude>
    <sign>-1</sign>
    <sn>269</sn>
  </loctest>
  <loctest>
    <city>BALIKESIR</city>
    <country>TURKEY</country>
    <diff>68:16</diff>
    <green>+03:00:00</green>
    <la_dir>NORTH</la_dir>
    <latitude>39.37</latitude>
    <lo_dir>EAST</lo_dir>
    <longitude>27.56</longitude>
    <sign>+1</sign>
    <sn>270</sn>
  </loctest>
  <loctest>
    <city>BOZEMAN</city>
    <country>MONTANA</country>
    <diff>24:40</diff>
    <green>-07:00:00</green>
    <la_dir>NORTH</la_dir>
    <latitude>45.47</latitude>
    <lo_dir>WEST</lo_dir>
    <longitude>111.10</longitude>
    <sign>-1</sign>
    <sn>271</sn>
  </loctest>
  <loctest>
    <city>BRAZZAVILLE</city>
    <country>CONGO</country>
    <diff>1:0</diff>
    <green>+01:00:00</green>
    <la_dir>SOUTH</la_dir>
    <latitude>4.15</latitude>
    <lo_dir>EAST</lo_dir>
    <longitude>15.15</longitude>
    <sign>-1</sign>
    <sn>272</sn>
  </loctest>
  <loctest>
    <city>BRIZE NORTON</city>
    <country>UK</country>
    <diff>6:20</diff>
    <green>00:00:00</green>
    <la_dir>NORTH</la_dir>
    <latitude>51.45</latitude>
    <lo_dir>WEST</lo_dir>
    <longitude>1.35</longitude>
    <sign>-1</sign>
    <sn>273</sn>
  </loctest>
  <loctest>
    <city>CADILLAC</city>
    <country>MICHIGAN</country>
    <diff>41:40</diff>
    <green>-05:00:00</green>
    <la_dir>NORTH</la_dir>
    <latitude>44.17</latitude>
    <lo_dir>WEST</lo_dir>
    <longitude>85.25</longitude>
    <sign>-1</sign>
    <sn>274</sn>
  </loctest>
  <loctest>
    <city>CAGLIARI</city>
    <country>ITALY</country>
    <diff>23:44</diff>
    <green>+01:00:00</green>
    <la_dir>NORTH</la_dir>
    <latitude>39.15</latitude>
    <lo_dir>EAST</lo_dir>
    <longitude>9.04</longitude>
    <sign>+1</sign>
    <sn>275</sn>
  </loctest>
  <loctest>
    <city>CAIRO</city>
    <country>EGYPT</country>
    <diff>5:36</diff>
    <green>+02:00:00</green>
    <la_dir>NORTH</la_dir>
    <latitude>30.8</latitude>
    <lo_dir>EAST</lo_dir>
    <longitude>31.24</longitude>
    <sign>-1</sign>
    <sn>276</sn>
  </loctest>
  <loctest>
    <city>AKRON/CANTON</city>
    <country>OHIO</country>
    <diff>25:48</diff>
    <green>-05:00:00</green>
    <la_dir>NORTH</la_dir>
    <latitude>40.55</latitude>
    <lo_dir>WEST</lo_dir>
    <longitude>81.27</longitude>
    <sign>-1</sign>
    <sn>277</sn>
  </loctest>
  <loctest>
    <city>GUANGZHOU</city>
    <country>CHINA</country>
    <diff>27:4</diff>
    <green>+08:00:00</green>
    <la_dir>NORTH</la_dir>
    <latitude>23.7</latitude>
    <lo_dir>EAST</lo_dir>
    <longitude>113.14</longitude>
    <sign>+1</sign>
    <sn>278</sn>
  </loctest>
  <loctest>
    <city>CAYENNE</city>
    <country>GUIANA FRAN</country>
    <diff>30:32</diff>
    <green>-04:00:00</green>
    <la_dir>NORTH</la_dir>
    <latitude>4.49</latitude>
    <lo_dir>WEST</lo_dir>
    <longitude>52.22</longitude>
    <sign>+1</sign>
    <sn>279</sn>
  </loctest>
  <loctest>
    <city>COCHABAMBA</city>
    <country>BOLIVIA</country>
    <diff>24:40</diff>
    <green>-04:00:00</green>
    <la_dir>SOUTH</la_dir>
    <latitude>17.26</latitude>
    <lo_dir>WEST</lo_dir>
    <longitude>66.10</longitude>
    <sign>-1</sign>
    <sn>280</sn>
  </loctest>
  <loctest>
    <city>CUMBERLAND</city>
    <country>MARYLAND</country>
    <diff>15:4</diff>
    <green>-05:00:00</green>
    <la_dir>NORTH</la_dir>
    <latitude>39.37</latitude>
    <lo_dir>WEST</lo_dir>
    <longitude>78.46</longitude>
    <sign>-1</sign>
    <sn>281</sn>
  </loctest>
  <loctest>
    <city>BECHAR</city>
    <country>ALGERIA</country>
    <diff>50:56</diff>
    <green>+01:00:00</green>
    <la_dir>NORTH</la_dir>
    <latitude>31.39</latitude>
    <lo_dir>WEST</lo_dir>
    <longitude>2.16</longitude>
    <sign>+1</sign>
    <sn>282</sn>
  </loctest>
  <loctest>
    <city>COLBY</city>
    <country>KANSAS</country>
    <diff>44:12</diff>
    <green>-06:00:00</green>
    <la_dir>NORTH</la_dir>
    <latitude>39.24</latitude>
    <lo_dir>WEST</lo_dir>
    <longitude>101.03</longitude>
    <sign>-1</sign>
    <sn>283</sn>
  </loctest>
  <loctest>
    <city>CALABAR</city>
    <country>NIGERIA</country>
    <diff>26:36</diff>
    <green>+01:00:00</green>
    <la_dir>NORTH</la_dir>
    <latitude>4.58</latitude>
    <lo_dir>EAST</lo_dir>
    <longitude>8.21</longitude>
    <sign>+1</sign>
    <sn>284</sn>
  </loctest>
  <loctest>
    <city>CANBERRA</city>
    <country>AUSTRALIA</country>
    <diff>3:12</diff>
    <green>+10:00:00</green>
    <la_dir>SOUTH</la_dir>
    <latitude>35.19</latitude>
    <lo_dir>EAST</lo_dir>
    <longitude>149.12</longitude>
    <sign>+1</sign>
    <sn>285</sn>
  </loctest>
  <loctest>
    <city>CONCEPCION</city>
    <country>CHILE</country>
    <diff>52:16</diff>
    <green>-04:00:00</green>
    <la_dir>SOUTH</la_dir>
    <latitude>36.46</latitude>
    <lo_dir>WEST</lo_dir>
    <longitude>73.04</longitude>
    <sign>-1</sign>
    <sn>286</sn>
  </loctest>
  <loctest>
    <city>CONCORD</city>
    <country>CALIFORNIA</country>
    <diff>8:12</diff>
    <green>-08:00:00</green>
    <la_dir>NORTH</la_dir>
    <latitude>37.59</latitude>
    <lo_dir>WEST</lo_dir>
    <longitude>122.03</longitude>
    <sign>-1</sign>
    <sn>287</sn>
  </loctest>
  <loctest>
    <city>CARACAS</city>
    <country>VENEZUELA</country>
    <diff>27:56</diff>
    <green>-04:00:00</green>
    <la_dir>NORTH</la_dir>
    <latitude>10.36</latitude>
    <lo_dir>WEST</lo_dir>
    <longitude>66.59</longitude>
    <sign>-1</sign>
    <sn>288</sn>
  </loctest>
  <loctest>
    <city>CALCUTTA</city>
    <country>INDIA</country>
    <diff>3:48</diff>
    <green>+05:50:00</green>
    <la_dir>NORTH</la_dir>
    <latitude>22.39</latitude>
    <lo_dir>EAST</lo_dir>
    <longitude>88.27</longitude>
    <sign>-1</sign>
    <sn>289</sn>
  </loctest>
  <loctest>
    <city>COLD BAY</city>
    <country>ALASKA</country>
    <diff>110:52</diff>
    <green>-09:00:00</green>
    <la_dir>NORTH</la_dir>
    <latitude>55.12</latitude>
    <lo_dir>WEST</lo_dir>
    <longitude>162.43</longitude>
    <sign>-1</sign>
    <sn>290</sn>
  </loctest>
  <loctest>
    <city>CEDAR CITY</city>
    <country>UTAH</country>
    <diff>32:24</diff>
    <green>-07:00:00</green>
    <la_dir>NORTH</la_dir>
    <latitude>37.42</latitude>
    <lo_dir>WEST</lo_dir>
    <longitude>113.06</longitude>
    <sign>-1</sign>
    <sn>291</sn>
  </loctest>
  <loctest>
    <city>PARIS</city>
    <country>FRANCE</country>
    <diff>49:48</diff>
    <green>+01:00:00</green>
    <la_dir>NORTH</la_dir>
    <latitude>49.1</latitude>
    <lo_dir>EAST</lo_dir>
    <longitude>2.33</longitude>
    <sign>+1</sign>
    <sn>292</sn>
  </loctest>
  <loctest>
    <city>CAMDEN</city>
    <country>ARKANSAS</country>
    <diff>11:4</diff>
    <green>-06:00:00</green>
    <la_dir>NORTH</la_dir>
    <latitude>33.37</latitude>
    <lo_dir>WEST</lo_dir>
    <longitude>92.46</longitude>
    <sign>-1</sign>
    <sn>293</sn>
  </loctest>
  <loctest>
    <city>CHADRON</city>
    <country>NEBRASKA</country>
    <diff>7:36</diff>
    <green>-07:00:00</green>
    <la_dir>NORTH</la_dir>
    <latitude>42.50</latitude>
    <lo_dir>WEST</lo_dir>
    <longitude>103.06</longitude>
    <sign>+1</sign>
    <sn>294</sn>
  </loctest>
  <loctest>
    <city>CORDOVA</city>
    <country>ALASKA</country>
    <diff>41:52</diff>
    <green>-09:00:00</green>
    <la_dir>NORTH</la_dir>
    <latitude>60.30</latitude>
    <lo_dir>WEST</lo_dir>
    <longitude>145.28</longitude>
    <sign>-1</sign>
    <sn>295</sn>
  </loctest>
  <loctest>
    <city>CALDWELL</city>
    <country>NEW JERSEY</country>
    <diff>2:52</diff>
    <green>-05:00:00</green>
    <la_dir>NORTH</la_dir>
    <latitude>40.53</latitude>
    <lo_dir>WEST</lo_dir>
    <longitude>74.17</longitude>
    <sign>+1</sign>
    <sn>296</sn>
  </loctest>
  <loctest>
    <city>CRESCENT CITY</city>
    <country>CA</country>
    <diff>16:56</diff>
    <green>-08:00:00</green>
    <la_dir>NORTH</la_dir>
    <latitude>41.47</latitude>
    <lo_dir>WEST</lo_dir>
    <longitude>124.14</longitude>
    <sign>-1</sign>
    <sn>297</sn>
  </loctest>
  <loctest>
    <city>CHICOPEE FALLS</city>
    <country>MA</country>
    <diff>9:52</diff>
    <green>-05:00:00</green>
    <la_dir>NORTH</la_dir>
    <latitude>42.12</latitude>
    <lo_dir>WEST</lo_dir>
    <longitude>72.32</longitude>
    <sign>+1</sign>
    <sn>298</sn>
  </loctest>
  <loctest>
    <city>CAPE ELEUTHERA</city>
    <country>BS</country>
    <diff>5:12</diff>
    <green>-05:00:00</green>
    <la_dir>NORTH</la_dir>
    <latitude>24.47</latitude>
    <lo_dir>WEST</lo_dir>
    <longitude>76.18</longitude>
    <sign>-1</sign>
    <sn>299</sn>
  </loctest>
  <loctest>
    <city>CIUDAD OBREGON</city>
    <country>MEXI</country>
    <diff>19:20</diff>
    <green>-07:00:00</green>
    <la_dir>NORTH</la_dir>
    <latitude>27.24</latitude>
    <lo_dir>WEST</lo_dir>
    <longitude>109.50</longitude>
    <sign>-1</sign>
    <sn>300</sn>
  </loctest>
  <loctest>
    <city>CHERBOURG</city>
    <country>FRANCE</country>
    <diff>54:8</diff>
    <green>+01:00:00</green>
    <la_dir>NORTH</la_dir>
    <latitude>49.39</latitude>
    <lo_dir>WEST</lo_dir>
    <longitude>1.28</longitude>
    <sign>+1</sign>
    <sn>301</sn>
  </loctest>
  <loctest>
    <city>CRESTVIEW</city>
    <country>FLORIDA</country>
    <diff>46:4</diff>
    <green>-05:00:00</green>
    <la_dir>NORTH</la_dir>
    <latitude>30.47</latitude>
    <lo_dir>WEST</lo_dir>
    <longitude>86.31</longitude>
    <sign>-1</sign>
    <sn>302</sn>
  </loctest>
  <loctest>
    <city>MURRAY</city>
    <country>KENTUCKY</country>
    <diff>6:32</diff>
    <green>-06:00:00</green>
    <la_dir>NORTH</la_dir>
    <latitude>36.40</latitude>
    <lo_dir>WEST</lo_dir>
    <longitude>88.22</longitude>
    <sign>+1</sign>
    <sn>303</sn>
  </loctest>
  <loctest>
    <city>CORTEZ</city>
    <country>COLORADO</country>
    <diff>14:32</diff>
    <green>-07:00:00</green>
    <la_dir>NORTH</la_dir>
    <latitude>37.18</latitude>
    <lo_dir>WEST</lo_dir>
    <longitude>108.38</longitude>
    <sign>-1</sign>
    <sn>304</sn>
  </loctest>
  <loctest>
    <city>CLERMONT-FERRAND</city>
    <country>FR</country>
    <diff>47:20</diff>
    <green>+01:00:00</green>
    <la_dir>NORTH</la_dir>
    <latitude>45.47</latitude>
    <lo_dir>EAST</lo_dir>
    <longitude>3.10</longitude>
    <sign>+1</sign>
    <sn>305</sn>
  </loctest>
  <loctest>
    <city>CUIABA</city>
    <country>BRAZIL</country>
    <diff>44:28</diff>
    <green>-03:00:00</green>
    <la_dir>SOUTH</la_dir>
    <latitude>15.39</latitude>
    <lo_dir>WEST</lo_dir>
    <longitude>56.07</longitude>
    <sign>-1</sign>
    <sn>306</sn>
  </loctest>
  <loctest>
    <city>SAO PAULO</city>
    <country>BRAZIL</country>
    <diff>6:40</diff>
    <green>-03:00:00</green>
    <la_dir>SOUTH</la_dir>
    <latitude>23.38</latitude>
    <lo_dir>WEST</lo_dir>
    <longitude>46.40</longitude>
    <sign>-1</sign>
    <sn>307</sn>
  </loctest>
  <loctest>
    <city>CAPE GIRARDEAU</city>
    <country>MO</country>
    <diff>1:44</diff>
    <green>-06:00:00</green>
    <la_dir>NORTH</la_dir>
    <latitude>37.13</latitude>
    <lo_dir>WEST</lo_dir>
    <longitude>89.34</longitude>
    <sign>+1</sign>
    <sn>308</sn>
  </loctest>
  <loctest>
    <city>COLOGNE</city>
    <country>GERMANY</country>
    <diff>31:24</diff>
    <green>+01:00:00</green>
    <la_dir>NORTH</la_dir>
    <latitude>50.52</latitude>
    <lo_dir>EAST</lo_dir>
    <longitude>7.09</longitude>
    <sign>+1</sign>
    <sn>309</sn>
  </loctest>
  <loctest>
    <city>CHITTAGONG</city>
    <country>BANGLADE</country>
    <diff>7:20</diff>
    <green>+06:00:00</green>
    <la_dir>NORTH</la_dir>
    <latitude>22.15</latitude>
    <lo_dir>EAST</lo_dir>
    <longitude>91.50</longitude>
    <sign>-1</sign>
    <sn>310</sn>
  </loctest>
  <loctest>
    <city>CAMPO GRANDE</city>
    <country>BRAZIL</country>
    <diff>38:40</diff>
    <green>-03:00:00</green>
    <la_dir>SOUTH</la_dir>
    <latitude>20.28</latitude>
    <lo_dir>WEST</lo_dir>
    <longitude>54.40</longitude>
    <sign>-1</sign>
    <sn>311</sn>
  </loctest>
  <loctest>
    <city>CAGAYAN</city>
    <country>PHILIPPINES</country>
    <diff>18:28</diff>
    <green>+08:00:00</green>
    <la_dir>NORTH</la_dir>
    <latitude>8.25</latitude>
    <lo_dir>EAST</lo_dir>
    <longitude>124.37</longitude>
    <sign>-1</sign>
    <sn>312</sn>
  </loctest>
  <loctest>
    <city>CASA GRANDE</city>
    <country>ARIZONA</country>
    <diff>27:4</diff>
    <green>-07:00:00</green>
    <la_dir>NORTH</la_dir>
    <latitude>32.57</latitude>
    <lo_dir>WEST</lo_dir>
    <longitude>111.46</longitude>
    <sign>-1</sign>
    <sn>313</sn>
  </loctest>
  <loctest>
    <city>CHATTANOOGA</city>
    <country>TN</country>
    <diff>40:48</diff>
    <green>-05:00:00</green>
    <la_dir>NORTH</la_dir>
    <latitude>35.2</latitude>
    <lo_dir>WEST</lo_dir>
    <longitude>85.12</longitude>
    <sign>-1</sign>
    <sn>314</sn>
  </loctest>
  <loctest>
    <city>CHRISTCHURCH</city>
    <country>NZ</country>
    <diff>29:52</diff>
    <green>+12:00:00</green>
    <la_dir>SOUTH</la_dir>
    <latitude>43.29</latitude>
    <lo_dir>EAST</lo_dir>
    <longitude>172.32</longitude>
    <sign>+1</sign>
    <sn>315</sn>
  </loctest>
  <loctest>
    <city>CHICKASHA</city>
    <country>OKLAHOMA</country>
    <diff>31:52</diff>
    <green>-06:00:00</green>
    <la_dir>NORTH</la_dir>
    <latitude>35.2</latitude>
    <lo_dir>WEST</lo_dir>
    <longitude>97.58</longitude>
    <sign>-1</sign>
    <sn>316</sn>
  </loctest>
  <loctest>
    <city>CHARLOTTESVILLE</city>
    <country>VA</country>
    <diff>13:48</diff>
    <green>-05:00:00</green>
    <la_dir>NORTH</la_dir>
    <latitude>38.8</latitude>
    <lo_dir>WEST</lo_dir>
    <longitude>78.27</longitude>
    <sign>-1</sign>
    <sn>317</sn>
  </loctest>
  <loctest>
    <city>CHANIA</city>
    <country>GREECE</country>
    <diff>23:24</diff>
    <green>+02:00:00</green>
    <la_dir>NORTH</la_dir>
    <latitude>35.32</latitude>
    <lo_dir>EAST</lo_dir>
    <longitude>24.09</longitude>
    <sign>+1</sign>
    <sn>318</sn>
  </loctest>
  <loctest>
    <city>CHATEAUROUX</city>
    <country>FRANCE</country>
    <diff>53:12</diff>
    <green>+01:00:00</green>
    <la_dir>NORTH</la_dir>
    <latitude>46.49</latitude>
    <lo_dir>EAST</lo_dir>
    <longitude>1.42</longitude>
    <sign>+1</sign>
    <sn>319</sn>
  </loctest>
  <loctest>
    <city>CHARLESTON</city>
    <country>SC</country>
    <diff>20:8</diff>
    <green>-05:00:00</green>
    <la_dir>NORTH</la_dir>
    <latitude>32.54</latitude>
    <lo_dir>WEST</lo_dir>
    <longitude>80.02</longitude>
    <sign>-1</sign>
    <sn>320</sn>
  </loctest>
  <loctest>
    <city>ROME</city>
    <country>ITALY</country>
    <diff>9:36</diff>
    <green>+01:00:00</green>
    <la_dir>NORTH</la_dir>
    <latitude>41.48</latitude>
    <lo_dir>EAST</lo_dir>
    <longitude>12.36</longitude>
    <sign>+1</sign>
    <sn>321</sn>
  </loctest>
  <loctest>
    <city>CHICO</city>
    <country>CA</country>
    <diff>7:24</diff>
    <green>-08:00:00</green>
    <la_dir>NORTH</la_dir>
    <latitude>39.48</latitude>
    <lo_dir>WEST</lo_dir>
    <longitude>121.51</longitude>
    <sign>-1</sign>
    <sn>322</sn>
  </loctest>
  <loctest>
    <city>CEDAR RAPIDS</city>
    <country>IOWA</country>
    <diff>6:48</diff>
    <green>-06:00:00</green>
    <la_dir>NORTH</la_dir>
    <latitude>41.53</latitude>
    <lo_dir>WEST</lo_dir>
    <longitude>91.42</longitude>
    <sign>-1</sign>
    <sn>323</sn>
  </loctest>
  <loctest>
    <city>SAULT STE MARIE</city>
    <country>
    </country>
    <diff>37:52</diff>
    <green>-05:00:00</green>
    <la_dir>NORTH</la_dir>
    <latitude>46.15</latitude>
    <lo_dir>WEST</lo_dir>
    <longitude>84.28</longitude>
    <sign>-1</sign>
    <sn>324</sn>
  </loctest>
  <loctest>
    <city>CHICLAYO</city>
    <country>PERU</country>
    <diff>19:20</diff>
    <green>-05:00:00</green>
    <la_dir>SOUTH</la_dir>
    <latitude>6.47</latitude>
    <lo_dir>WEST</lo_dir>
    <longitude>79.50</longitude>
    <sign>-1</sign>
    <sn>325</sn>
  </loctest>
  <loctest>
    <city>CALAMA</city>
    <country>CHILE</country>
    <diff>35:40</diff>
    <green>-04:00:00</green>
    <la_dir>SOUTH</la_dir>
    <latitude>22.29</latitude>
    <lo_dir>WEST</lo_dir>
    <longitude>68.55</longitude>
    <sign>-1</sign>
    <sn>326</sn>
  </loctest>
  <loctest>
    <city>CIUDAD JUAREZ</city>
    <country>MEXICO</country>
    <diff>65:44</diff>
    <green>-06:00:00</green>
    <la_dir>NORTH</la_dir>
    <latitude>31.38</latitude>
    <lo_dir>WEST</lo_dir>
    <longitude>106.26</longitude>
    <sign>-1</sign>
    <sn>327</sn>
  </loctest>
  <loctest>
    <city>CHEJU</city>
    <country>SOUTH KOREA</country>
    <diff>34:0</diff>
    <green>+09:00:00</green>
    <la_dir>NORTH</la_dir>
    <latitude>33.30</latitude>
    <lo_dir>EAST</lo_dir>
    <longitude>126.30</longitude>
    <sign>+1</sign>
    <sn>328</sn>
  </loctest>
  <loctest>
    <city>CLARKSBURG</city>
    <country>WV</country>
    <diff>20:56</diff>
    <green>-05:00:00</green>
    <la_dir>NORTH</la_dir>
    <latitude>39.18</latitude>
    <lo_dir>WEST</lo_dir>
    <longitude>80.14</longitude>
    <sign>-1</sign>
    <sn>329</sn>
  </loctest>
  <loctest>
    <city>CLARKSVILLE</city>
    <country>TN</country>
    <diff>10:20</diff>
    <green>-06:00:00</green>
    <la_dir>NORTH</la_dir>
    <latitude>36.37</latitude>
    <lo_dir>WEST</lo_dir>
    <longitude>87.25</longitude>
    <sign>+1</sign>
    <sn>330</sn>
  </loctest>
  <loctest>
    <city>CONAKRY</city>
    <country>GUINEA</country>
    <diff>54:28</diff>
    <green>00:00:00</green>
    <la_dir>NORTH</la_dir>
    <latitude>9.35</latitude>
    <lo_dir>WEST</lo_dir>
    <longitude>13.37</longitude>
    <sign>-1</sign>
    <sn>331</sn>
  </loctest>
  <loctest>
    <city>COALINGA</city>
    <country>CALIFORNIA</country>
    <diff>1:28</diff>
    <green>-08:00:00</green>
    <la_dir>NORTH</la_dir>
    <latitude>36.10</latitude>
    <lo_dir>WEST</lo_dir>
    <longitude>120.22</longitude>
    <sign>-1</sign>
    <sn>332</sn>
  </loctest>
  <loctest>
    <city>CLINTON</city>
    <country>OKLAHOMA</country>
    <diff>24:16</diff>
    <green>-07:00:00</green>
    <la_dir>NORTH</la_dir>
    <latitude>35.32</latitude>
    <lo_dir>WEST</lo_dir>
    <longitude>98.56</longitude>
    <sign>+1</sign>
    <sn>333</sn>
  </loctest>
  <loctest>
    <city>COLLEGE STATION</city>
    <country>TX</country>
    <diff>34:32</diff>
    <green>-07:00:00</green>
    <la_dir>NORTH</la_dir>
    <latitude>30.35</latitude>
    <lo_dir>WEST</lo_dir>
    <longitude>96.22</longitude>
    <sign>+1</sign>
    <sn>334</sn>
  </loctest>
  <loctest>
    <city>PORT ANGELES</city>
    <country>WA</country>
    <diff>14:0</diff>
    <green>-08:00:00</green>
    <la_dir>NORTH</la_dir>
    <latitude>48.7</latitude>
    <lo_dir>WEST</lo_dir>
    <longitude>123.30</longitude>
    <sign>-1</sign>
    <sn>335</sn>
  </loctest>
  <loctest>
    <city>CALI</city>
    <country>COLOMBIA</country>
    <diff>5:32</diff>
    <green>-05:00:00</green>
    <la_dir>NORTH</la_dir>
    <latitude>3.33</latitude>
    <lo_dir>WEST</lo_dir>
    <longitude>76.23</longitude>
    <sign>-1</sign>
    <sn>336</sn>
  </loctest>
  <loctest>
    <city>CHEHALIS</city>
    <country>WASHINGTON</country>
    <diff>11:56</diff>
    <green>-08:00:00</green>
    <la_dir>NORTH</la_dir>
    <latitude>46.40</latitude>
    <lo_dir>WEST</lo_dir>
    <longitude>122.59</longitude>
    <sign>-1</sign>
    <sn>337</sn>
  </loctest>
  <loctest>
    <city>CHARLOTTE</city>
    <country>NC</country>
    <diff>23:44</diff>
    <green>-05:00:00</green>
    <la_dir>NORTH</la_dir>
    <latitude>35.13</latitude>
    <lo_dir>WEST</lo_dir>
    <longitude>80.56</longitude>
    <sign>-1</sign>
    <sn>338</sn>
  </loctest>
  <loctest>
    <city>CALVI</city>
    <country>FRANCE</country>
    <diff>24:48</diff>
    <green>+01:00:00</green>
    <la_dir>NORTH</la_dir>
    <latitude>42.32</latitude>
    <lo_dir>EAST</lo_dir>
    <longitude>8.48</longitude>
    <sign>+1</sign>
    <sn>339</sn>
  </loctest>
  <loctest>
    <city>CUNNAMULLA</city>
    <country>AUSTRALI</country>
    <diff>17:32</diff>
    <green>+10:00:00</green>
    <la_dir>SOUTH</la_dir>
    <latitude>28.2</latitude>
    <lo_dir>EAST</lo_dir>
    <longitude>145.37</longitude>
    <sign>+1</sign>
    <sn>340</sn>
  </loctest>
  <loctest>
    <city>COLOMBO</city>
    <country>SRI LANKA</country>
    <diff>30:28</diff>
    <green>+05:50:00</green>
    <la_dir>NORTH</la_dir>
    <latitude>7.11</latitude>
    <lo_dir>EAST</lo_dir>
    <longitude>79.53</longitude>
    <sign>+1</sign>
    <sn>341</sn>
  </loctest>
  <loctest>
    <city>COLUMBUS</city>
    <country>OHIO</country>
    <diff>31:32</diff>
    <green>-05:00:00</green>
    <la_dir>NORTH</la_dir>
    <latitude>39.59</latitude>
    <lo_dir>WEST</lo_dir>
    <longitude>82.53</longitude>
    <sign>-1</sign>
    <sn>342</sn>
  </loctest>
  <loctest>
    <city>CHAMPAIGN/URBANA</city>
    <country>IL</country>
    <diff>6:52</diff>
    <green>-06:00:00</green>
    <la_dir>NORTH</la_dir>
    <latitude>40.2</latitude>
    <lo_dir>WEST</lo_dir>
    <longitude>88.17</longitude>
    <sign>+1</sign>
    <sn>343</sn>
  </loctest>
  <loctest>
    <city>CASABLANCA</city>
    <country>MOROCCO</country>
    <diff>30:20</diff>
    <green>00:00:00</green>
    <la_dir>NORTH</la_dir>
    <latitude>33.22</latitude>
    <lo_dir>WEST</lo_dir>
    <longitude>7.35</longitude>
    <sign>-1</sign>
    <sn>344</sn>
  </loctest>
  <loctest>
    <city>CAMAGUEY</city>
    <country>CUBA</country>
    <diff>11:24</diff>
    <green>-05:00:00</green>
    <la_dir>NORTH</la_dir>
    <latitude>21.25</latitude>
    <lo_dir>WEST</lo_dir>
    <longitude>77.51</longitude>
    <sign>-1</sign>
    <sn>345</sn>
  </loctest>
  <loctest>
    <city>HANCOCK</city>
    <country>MICHIGAN</country>
    <diff>53:56</diff>
    <green>-05:00:00</green>
    <la_dir>NORTH</la_dir>
    <latitude>47.10</latitude>
    <lo_dir>WEST</lo_dir>
    <longitude>88.29</longitude>
    <sign>-1</sign>
    <sn>346</sn>
  </loctest>
  <loctest>
    <city>CONSTANTA</city>
    <country>ROMANIA</country>
    <diff>186:4</diff>
    <green>-05:00:00</green>
    <la_dir>NORTH</la_dir>
    <latitude>44.21</latitude>
    <lo_dir>EAST</lo_dir>
    <longitude>28.29</longitude>
    <sign>+1</sign>
    <sn>347</sn>
  </loctest>
  <loctest>
    <city>CARLSBAD</city>
    <country>NEW MEXICO</country>
    <diff>2:56</diff>
    <green>-07:00:00</green>
    <la_dir>NORTH</la_dir>
    <latitude>32.20</latitude>
    <lo_dir>WEST</lo_dir>
    <longitude>104.16</longitude>
    <sign>+1</sign>
    <sn>348</sn>
  </loctest>
  <loctest>
    <city>CHINO</city>
    <country>CALIFORNIA</country>
    <diff>9:28</diff>
    <green>-08:00:00</green>
    <la_dir>NORTH</la_dir>
    <latitude>33.58</latitude>
    <lo_dir>WEST</lo_dir>
    <longitude>117.38</longitude>
    <sign>+1</sign>
    <sn>349</sn>
  </loctest>
  <loctest>
    <city>CORRIENTES</city>
    <country>ARGENTINA</country>
    <diff>55:4</diff>
    <green>-03:00:00</green>
